stop_id,stop_code,stop_name,stop_lat,stop_lon,stop_url,bt_id
0788,0788,CENTENNIAL VILLAGE,61.22535,-149.714437,http://bustracker.muni.org/InfoPoint/departures.aspx?stopid=1442,1442
3024,3024,AIRPORT SOUTH TERMINAL STOP 2,61.173144,-149.979292,http://bustracker.muni.org/InfoPoint/departures.aspx?stopid=1448,1448
1017,1017,HUFFMAN BUSINESS PARK,61.110207,-149.857457,http://bustracker.muni.org/InfoPoint/departures.aspx?stopid=1470,1470
1951,1951,MULDOON & DEBARR EAST,61.210862,-149.73323,http://bustracker.muni.org/InfoPoint/departures.aspx?stopid=1473,1473
1084,1084,MULDOON & DEBARR WEST,61.209295,-149.733821,http://bustracker.muni.org/InfoPoint/departures.aspx?stopid=1474,1474
2051,2051,DOWNTOWN TRANSIT CENTER,61.216553,-149.896764,http://bustracker.muni.org/InfoPoint/departures.aspx?stopid=1477,1477
1223,1223,PROVIDENCE & ALUMNI,61.189969,-149.8169,http://bustracker.muni.org/InfoPoint/departures.aspx?stopid=2787,2787
1755,1755,BOUNDARY & BONIFACE,61.223304,-149.777366,http://bustracker.muni.org/InfoPoint/departures.aspx?stopid=1482,1482
1863,1863,EAGLE RIVER TRANSIT CENTER,61.327765,-149.573677,http://bustracker.muni.org/InfoPoint/departures.aspx?stopid=1490,1490
0057,0057,DIMOND TRANSIT CENTER,61.142764,-149.871953,http://bustracker.muni.org/InfoPoint/departures.aspx?stopid=1494,1494
0002,0002,6TH AVENUE & C STREET ESE,61.216517,-149.886091,http://bustracker.muni.org/InfoPoint/departures.aspx?stopid=2788,2788
0003,0003,C STREET & 7TH AVENUE SSW,61.215198,-149.887511,http://bustracker.muni.org/InfoPoint/departures.aspx?stopid=2840,2840
0004,0004,C STREET & 10TH AVENUE SSW,61.212407,-149.887517,http://bustracker.muni.org/InfoPoint/departures.aspx?stopid=1499,1499
0005,0005,C STREET & 12TH AVENUE SSW,61.210297,-149.887484,http://bustracker.muni.org/InfoPoint/departures.aspx?stopid=1500,1500
0006,0006,C STREET & 14TH AVENUE NNW,61.20868,-149.887494,http://bustracker.muni.org/InfoPoint/departures.aspx?stopid=1501,1501
0007,0007,C STREET & 16TH AVENUE SSW,61.20577,-149.887536,http://bustracker.muni.org/InfoPoint/departures.aspx?stopid=1502,1502
0008,0008,C STREET & 19TH AVENUE NNW,61.203688,-149.887627,http://bustracker.muni.org/InfoPoint/departures.aspx?stopid=1503,1503
0009,0009,C STREET & 22ND AVENUE NNW,61.20084,-149.88753,http://bustracker.muni.org/InfoPoint/departures.aspx?stopid=1504,1504
0010,0010,C STREET & FIREWEED SSW,61.197747,-149.88703,http://bustracker.muni.org/InfoPoint/departures.aspx?stopid=1505,1505
0011,0011,C STREET & BENSON NNW,61.194452,-149.886782,http://bustracker.muni.org/InfoPoint/departures.aspx?stopid=1506,1506
0012,0012,C STREET & 31ST AVENUE NNW,61.19271,-149.886782,http://bustracker.muni.org/InfoPoint/departures.aspx?stopid=1507,1507
0023,0023,LAKE OTIS & 36TH AVENUE SSW,61.187323,-149.838461,http://bustracker.muni.org/InfoPoint/departures.aspx?stopid=1517,1517
0026,0026,LAKE OTIS & TUDOR SSW,61.179662,-149.838407,http://bustracker.muni.org/InfoPoint/departures.aspx?stopid=1520,1520
0029,0029,LAKE OTIS & 54TH AVENUE SSW,61.171577,-149.838337,http://bustracker.muni.org/InfoPoint/departures.aspx?stopid=1523,1523
0031,0031,LAKE OTIS & DOWLING SSW,61.165866,-149.838429,http://bustracker.muni.org/InfoPoint/departures.aspx?stopid=1525,1525
0033,0033,LAKE OTIS & 68TH AVENUE SSW,61.158822,-149.834451,http://bustracker.muni.org/InfoPoint/departures.aspx?stopid=1527,1527
0035,0035,LAKE OTIS & LORE SSW,61.151458,-149.834421,http://bustracker.muni.org/InfoPoint/departures.aspx?stopid=1529,1529
0037,0037,LAKE OTIS & 85TH AVENUE NNW,61.14402,-149.834352,http://bustracker.muni.org/InfoPoint/departures.aspx?stopid=1531,1531
0052,0052,OLD SEWARD & LINGON BERRY SSE,61.127701,-149.863708,http://bustracker.muni.org/InfoPoint/departures.aspx?stopid=1542,1542
0053,0053,OLD SEWARD & SUNDOWN SSE,61.132638,-149.863711,http://bustracker.muni.org/InfoPoint/departures.aspx?stopid=1543,1543
0060,0060,OLD SEWARD & SUNDOWN NNW,61.133328,-149.864252,http://bustracker.muni.org/InfoPoint/departures.aspx?stopid=1545,1545
0064,0064,OLD SEWARD & LINGON BERRY SSW,61.127452,-149.864139,http://bustracker.muni.org/InfoPoint/departures.aspx?stopid=1549,1549
0075,0075,LAKE OTIS & ABBOTT NNE,61.138063,-149.833852,http://bustracker.muni.org/InfoPoint/departures.aspx?stopid=1558,1558
0077,0077,LAKE OTIS & 84TH AVENUE SSE,61.143452,-149.833844,http://bustracker.muni.org/InfoPoint/departures.aspx?stopid=1560,1560
0079,0079,LAKE OTIS & LORE NNE,61.152491,-149.833936,http://bustracker.muni.org/InfoPoint/departures.aspx?stopid=1562,1562
0081,0081,LAKE OTIS & 68TH AVENUE NNE,61.159673,-149.833996,http://bustracker.muni.org/InfoPoint/departures.aspx?stopid=1564,1564
0083,0083,LAKE OTIS & DOWLING NNE,61.167108,-149.837928,http://bustracker.muni.org/InfoPoint/departures.aspx?stopid=1566,1566
0085,0085,LAKE OTIS & YMCA E,61.17212,-149.837991,http://bustracker.muni.org/InfoPoint/departures.aspx?stopid=1568,1568
0088,0088,LAKE OTIS & TUDOR NNE,61.181575,-149.83782,http://bustracker.muni.org/InfoPoint/departures.aspx?stopid=1571,1571
0099,0099,A STREET & 36TH AVENUE NNE,61.188891,-149.882825,http://bustracker.muni.org/InfoPoint/departures.aspx?stopid=1579,1579
0100,0100,A STREET & 31ST AVENUE SSE,61.192401,-149.88293,http://bustracker.muni.org/InfoPoint/departures.aspx?stopid=1580,1580
0101,0101,A STREET & NORTHERN LIGHTS NNE,61.195933,-149.882935,http://bustracker.muni.org/InfoPoint/departures.aspx?stopid=1581,1581
0102,0102,A STREET & FIREWEED NNE,61.19917,-149.882807,http://bustracker.muni.org/InfoPoint/departures.aspx?stopid=1582,1582
0103,0103,A STREET & CHESTER CREEK TRAIL,61.204353,-149.883145,http://bustracker.muni.org/InfoPoint/departures.aspx?stopid=1583,1583
0104,0104,A STREET & 16TH AVENUE NNE,61.20683,-149.882898,http://bustracker.muni.org/InfoPoint/departures.aspx?stopid=1584,1584
0105,0105,A STREET & 13TH AVENUE NNE,61.210195,-149.883095,http://bustracker.muni.org/InfoPoint/departures.aspx?stopid=1585,1585
0106,0106,A STREET & 11TH AVENUE NNE,61.212138,-149.883277,http://bustracker.muni.org/InfoPoint/departures.aspx?stopid=1586,1586
0127,0127,SPENARD & 25TH AVENUE SSW,61.197572,-149.905568,http://bustracker.muni.org/InfoPoint/departures.aspx?stopid=1587,1587
0128,0128,SPENARD & 27TH AVENUE SSW,61.196082,-149.905579,http://bustracker.muni.org/InfoPoint/departures.aspx?stopid=1588,1588
0129,0129,SPENARD & BENSON NNW,61.194436,-149.905635,http://bustracker.muni.org/InfoPoint/departures.aspx?stopid=1589,1589
0130,0130,SPENARD & 30TH AVENUE NNW,61.19314,-149.905568,http://bustracker.muni.org/InfoPoint/departures.aspx?stopid=1590,1590
0131,0131,SPENARD & 33RD AVENUE NNW,61.190675,-149.907482,http://bustracker.muni.org/InfoPoint/departures.aspx?stopid=1591,1591
0132,0132,SPENARD & 34TH AVENUE SSW,61.189042,-149.908678,http://bustracker.muni.org/InfoPoint/departures.aspx?stopid=1592,1592
0133,0133,SPENARD & MINNESOTA ENE,61.186984,-149.912189,http://bustracker.muni.org/InfoPoint/departures.aspx?stopid=1593,1593
0134,0134,SPENARD & GREENLAND WNW,61.186666,-149.914835,http://bustracker.muni.org/InfoPoint/departures.aspx?stopid=1594,1594
0135,0135,SPENARD & OREGON WNW,61.186077,-149.918527,http://bustracker.muni.org/InfoPoint/departures.aspx?stopid=1595,1595
0136,0136,SPENARD & MCRAE WNW,61.185174,-149.923969,http://bustracker.muni.org/InfoPoint/departures.aspx?stopid=1596,1596
0137,0137,SPENARD & NORTHWOOD ENE,61.183869,-149.927104,http://bustracker.muni.org/InfoPoint/departures.aspx?stopid=1597,1597
0141,0141,SPENARD & WISCONSIN SSW,61.178722,-149.939618,http://bustracker.muni.org/InfoPoint/departures.aspx?stopid=1598,1598
0142,0142,SPENARD & BREEZEWOOD SSW,61.17706,-149.942041,http://bustracker.muni.org/InfoPoint/departures.aspx?stopid=1599,1599
0143,0143,SPENARD & INTL ARPT RD NNW,61.175228,-149.944283,http://bustracker.muni.org/InfoPoint/departures.aspx?stopid=1600,1600
0154,0154,JEWEL LAKE & RASPBERRY SSW,61.158085,-149.95201,http://bustracker.muni.org/InfoPoint/departures.aspx?stopid=1608,1608
0156,0156,JEWEL LAKE & STRAWBERRY SSW,61.151514,-149.952125,http://bustracker.muni.org/InfoPoint/departures.aspx?stopid=1610,1610
0158,0158,JEWEL LAKE & 82ND AVENUE NNW,61.146887,-149.95212,http://bustracker.muni.org/InfoPoint/departures.aspx?stopid=1612,1612
0162,0162,88TH AVENUE & JEWEL LAKE ESE,61.141015,-149.94999,http://bustracker.muni.org/InfoPoint/departures.aspx?stopid=1614,1614
0179,0179,DIMOND & MINNESOTA ESE,61.140868,-149.90525,http://bustracker.muni.org/InfoPoint/departures.aspx?stopid=1621,1621
0189,0189,DIMOND & DIMOND CTR DR WNW,61.144917,-149.87267,http://bustracker.muni.org/InfoPoint/departures.aspx?stopid=1623,1623
0191,0191,DIMOND & C STREET WNW,61.144912,-149.888768,http://bustracker.muni.org/InfoPoint/departures.aspx?stopid=1624,1624
0193,0193,DIMOND & MINNESOTA ENE,61.141256,-149.905399,http://bustracker.muni.org/InfoPoint/departures.aspx?stopid=1625,1625
0195,0195,DIMOND & VICTOR WNW,61.137655,-149.923468,http://bustracker.muni.org/InfoPoint/departures.aspx?stopid=1627,1627
0198,0198,88TH AVENUE & FOREST VILLAGE ENE,61.141171,-149.933427,http://bustracker.muni.org/InfoPoint/departures.aspx?stopid=1629,1629
0210,0210,JEWEL LAKE & 88TH AVENUE NNE,61.141705,-149.951684,http://bustracker.muni.org/InfoPoint/departures.aspx?stopid=1634,1634
0213,0213,JEWEL LAKE & 82ND AVENUE NNE,61.146968,-149.951743,http://bustracker.muni.org/InfoPoint/departures.aspx?stopid=1636,1636
0215,0215,JEWEL LAKE & STRAWBERRY NNE,61.152487,-149.951629,http://bustracker.muni.org/InfoPoint/departures.aspx?stopid=1638,1638
0227,0227,SPENARD & INTL ARPT RD NNE,61.17512,-149.943772,http://bustracker.muni.org/InfoPoint/departures.aspx?stopid=1649,1649
0228,0228,SPENARD & VALLEYWOOD NNE,61.177653,-149.940313,http://bustracker.muni.org/InfoPoint/departures.aspx?stopid=1650,1650
0229,0229,SPENARD & WISCONSIN NNE,61.17959,-149.938265,http://bustracker.muni.org/InfoPoint/departures.aspx?stopid=1651,1651
0232,0232,SPENARD & MCKINLEY SSE,61.183984,-149.926171,http://bustracker.muni.org/InfoPoint/departures.aspx?stopid=1652,1652
0233,0233,SPENARD & TAFT ESE,61.185366,-149.922413,http://bustracker.muni.org/InfoPoint/departures.aspx?stopid=1653,1653
0234,0234,SPENARD & WYOMING WSW,61.186327,-149.916088,http://bustracker.muni.org/InfoPoint/departures.aspx?stopid=1654,1654
0235,0235,SPENARD & MINNESOTA ESE,61.186842,-149.911704,http://bustracker.muni.org/InfoPoint/departures.aspx?stopid=1655,1655
0236,0236,SPENARD & 36TH AVENUE NNE,61.18847,-149.908449,http://bustracker.muni.org/InfoPoint/departures.aspx?stopid=1656,1656
0237,0237,SPENARD & 33RD AVENUE NNE,61.191293,-149.906626,http://bustracker.muni.org/InfoPoint/departures.aspx?stopid=1657,1657
0238,0238,SPENARD & Benson Blvd SSE,61.193564,-149.905291,http://bustracker.muni.org/InfoPoint/departures.aspx?stopid=1658,1658
0239,0239,SPENARD & NORTHERN LIGHTS NNE,61.195857,-149.905288,http://bustracker.muni.org/InfoPoint/departures.aspx?stopid=1659,1659
0240,0240,SPENARD & 26TH AVE NNE,61.197395,-149.905242,http://bustracker.muni.org/InfoPoint/departures.aspx?stopid=1660,1660
0245,0245,17TH AVENUE & E STREET WSW,61.205181,-149.89271,http://bustracker.muni.org/InfoPoint/departures.aspx?stopid=1661,1661
0250,0250,A STREET & 8TH AVENUE NNE,61.215023,-149.883119,http://bustracker.muni.org/InfoPoint/departures.aspx?stopid=1662,1662
0275,0275,BENSON & SPENARD ESE,61.193943,-149.904488,http://bustracker.muni.org/InfoPoint/departures.aspx?stopid=1663,1663
0276,0276,BENSON & ARCTIC ESE,61.194139,-149.896939,http://bustracker.muni.org/InfoPoint/departures.aspx?stopid=1664,1664
0277,0277,BENSON & CHEECHAKO ESE,61.194175,-149.893564,http://bustracker.muni.org/InfoPoint/departures.aspx?stopid=1665,1665
0278,0278,BENSON & EUREKA ESE,61.194168,-149.88993,http://bustracker.muni.org/InfoPoint/departures.aspx?stopid=1666,1666
0279,0279,BENSON & C STREET ESE,61.194147,-149.885681,http://bustracker.muni.org/InfoPoint/departures.aspx?stopid=1667,1667
0280,0280,BENSON & A STREET ESE,61.193691,-149.879827,http://bustracker.muni.org/InfoPoint/departures.aspx?stopid=1668,1668
0281,0281,BENSON & DENALI ESE,61.193312,-149.875134,http://bustracker.muni.org/InfoPoint/departures.aspx?stopid=1669,1669
0282,0282,BENSON & NEW SEWARD ESE,61.193323,-149.866475,http://bustracker.muni.org/InfoPoint/departures.aspx?stopid=1670,1670
0283,0283,BENSON & LATOUCHE ESE,61.194517,-149.85976,http://bustracker.muni.org/InfoPoint/departures.aspx?stopid=1671,1671
0284,0284,NORTHERN LIGHTS & REDWOOD ESE,61.195305,-149.855217,http://bustracker.muni.org/InfoPoint/departures.aspx?stopid=1672,1672
0285,0285,NORTHERN LIGHTS & DRAKE WSW,61.195224,-149.846589,http://bustracker.muni.org/InfoPoint/departures.aspx?stopid=1673,1673
0286,0286,NORTHERN LIGHTS & LAKE OTIS WSW,61.19522,-149.842519,http://bustracker.muni.org/InfoPoint/departures.aspx?stopid=1674,1674
0291,0291,PROVIDENCE & PIPER ESE,61.187884,-149.827836,http://bustracker.muni.org/InfoPoint/departures.aspx?stopid=1675,1675
0293,0293,UAA DRIVE & PROVIDENCE NNE,61.190267,-149.82235,http://bustracker.muni.org/InfoPoint/departures.aspx?stopid=1676,1676
0311,0311,DEBARR & BEAVER ESE,61.209601,-149.76185,http://bustracker.muni.org/InfoPoint/departures.aspx?stopid=1685,1685
0312,0312,DEBARR & TURPIN ESE,61.209625,-149.754945,http://bustracker.muni.org/InfoPoint/departures.aspx?stopid=1686,1686
0330,0330,DEBARR & PATTERSON ESE,61.209604,-149.747621,http://bustracker.muni.org/InfoPoint/departures.aspx?stopid=1694,1694
0331,0331,DEBARR & CREEKSIDE CTR WSW,61.209597,-149.741858,http://bustracker.muni.org/InfoPoint/departures.aspx?stopid=1695,1695
0356,0356,DEBARR & CREEKSIDE CTR ENE,61.209826,-149.740443,http://bustracker.muni.org/InfoPoint/departures.aspx?stopid=1698,1698
0364,0364,NORTHERN LIGHTS & AUGUSTINE WNW,61.19545,-149.744502,http://bustracker.muni.org/InfoPoint/departures.aspx?stopid=1705,1705
0365,0365,NORTHERN LIGHTS & PATTERSON WNW,61.195402,-149.749509,http://bustracker.muni.org/InfoPoint/departures.aspx?stopid=1706,1706
0366,0366,NORTHERN LIGHTS & BRITTANY WNW,61.1954,-149.755046,http://bustracker.muni.org/InfoPoint/departures.aspx?stopid=1707,1707
0367,0367,NORTHERN LIGHTS & CIMMARON WNW,61.195373,-149.759002,http://bustracker.muni.org/InfoPoint/departures.aspx?stopid=1708,1708
0368,0368,NORTHERN LIGHTS & BAXTER WNW,61.195355,-149.764613,http://bustracker.muni.org/InfoPoint/departures.aspx?stopid=1709,1709
0369,0369,NORTHERN LIGHTS & DERBY WNW,61.195348,-149.769305,http://bustracker.muni.org/InfoPoint/departures.aspx?stopid=1710,1710
0372,0372,DEBARR & PATTERSON WNW,61.209837,-149.749021,http://bustracker.muni.org/InfoPoint/departures.aspx?stopid=1711,1711
0373,0373,DEBARR & TURPIN WNW,61.20986,-149.757059,http://bustracker.muni.org/InfoPoint/departures.aspx?stopid=1712,1712
0374,0374,DEBARR & EDWARD ENE,61.209834,-149.763379,http://bustracker.muni.org/InfoPoint/departures.aspx?stopid=1713,1713
0385,0385,NORTHERN LIGHTS & BONIFACE WNW,61.19539,-149.780008,http://bustracker.muni.org/InfoPoint/departures.aspx?stopid=1722,1722
0386,0386,NORTHERN LIGHTS & WESLEYAN WNW,61.195349,-149.789867,http://bustracker.muni.org/InfoPoint/departures.aspx?stopid=1723,1723
0387,0387,NORTHERN LIGHTS & EAST HS ENE,61.199028,-149.801087,http://bustracker.muni.org/InfoPoint/departures.aspx?stopid=1724,1724
0388,0388,NORTHERN LIGHTS & BRAGAW WNW,61.199084,-149.809731,http://bustracker.muni.org/InfoPoint/departures.aspx?stopid=1725,1725
0391,0391,UAA DRIVE & NORTHERN LIGHTS SSW,61.195274,-149.827138,http://bustracker.muni.org/InfoPoint/departures.aspx?stopid=1726,1726
0392,0392,UAA DRIVE & PROVIDENCE NNW,61.19092,-149.82331,http://bustracker.muni.org/InfoPoint/departures.aspx?stopid=1727,1727
0396,0396,LAKE OTIS & PROVIDENCE NNE,61.18871,-149.837879,http://bustracker.muni.org/InfoPoint/departures.aspx?stopid=1728,1728
0397,0397,LAKE OTIS & CORNELL SSE,61.191391,-149.83806,http://bustracker.muni.org/InfoPoint/departures.aspx?stopid=1729,1729
0398,0398,NORTHERN LIGHTS & LAKE OTIS WNW,61.19553,-149.839335,http://bustracker.muni.org/InfoPoint/departures.aspx?stopid=1730,1730
0399,0399,NORTHERN LIGHTS & MAPLEWOOD WNW,61.195528,-149.846752,http://bustracker.muni.org/InfoPoint/departures.aspx?stopid=1731,1731
0400,0400,NORTHERN LIGHTS & GLENWOOD WNW,61.195574,-149.853672,http://bustracker.muni.org/InfoPoint/departures.aspx?stopid=1732,1732
0401,0401,NORTHERN LIGHTS & LATOUCHE WNW,61.19531,-149.861679,http://bustracker.muni.org/InfoPoint/departures.aspx?stopid=1733,1733
0402,0402,NORTHERN LIGHTS & GAMBELL ENE,61.195373,-149.869879,http://bustracker.muni.org/InfoPoint/departures.aspx?stopid=1734,1734
0403,0403,NORTHERN LIGHTS & DENALI ENE,61.19537,-149.875965,http://bustracker.muni.org/InfoPoint/departures.aspx?stopid=1735,1735
0404,0404,NORTHERN LIGHTS & CORDOVA WNW,61.195355,-149.87924,http://bustracker.muni.org/InfoPoint/departures.aspx?stopid=1736,1736
0405,0405,NORTHERN LIGHTS & A STREET WNW,61.195353,-149.883969,http://bustracker.muni.org/InfoPoint/departures.aspx?stopid=1737,1737
0406,0406,NORTHERN LIGHTS & C STREET WNW,61.195404,-149.8875,http://bustracker.muni.org/InfoPoint/departures.aspx?stopid=1738,1738
0407,0407,NORTHERN LIGHTS & BERING ENE,61.195371,-149.89513,http://bustracker.muni.org/InfoPoint/departures.aspx?stopid=1739,1739
0408,0408,NORTHERN LIGHTS & ARCTIC WNW,61.195351,-149.898737,http://bustracker.muni.org/InfoPoint/departures.aspx?stopid=1740,1740
0409,0409,NORTHERN LIGHTS & SPENARD WNW,61.195379,-149.906828,http://bustracker.muni.org/InfoPoint/departures.aspx?stopid=1741,1741
0410,0410,NORTHERN LIGHTS & MINNESOTA ENE,61.195367,-149.9106,http://bustracker.muni.org/InfoPoint/departures.aspx?stopid=1742,1742
0411,0411,MINNESOTA & 26TH AVENUE NNE,61.197666,-149.912798,http://bustracker.muni.org/InfoPoint/departures.aspx?stopid=1743,1743
0423,0423,9TH AVENUE & INGRA ESE,61.213554,-149.865281,http://bustracker.muni.org/InfoPoint/departures.aspx?stopid=1744,1744
0424,0424,9TH AVENUE & KARLUK ESE,61.213578,-149.861597,http://bustracker.muni.org/InfoPoint/departures.aspx?stopid=1745,1745
0425,0425,LATOUCHE & 10TH AVENUE SSW,61.212474,-149.860969,http://bustracker.muni.org/InfoPoint/departures.aspx?stopid=1746,1746
0426,0426,MEDFRA & 12TH AVENUE SSW,61.210393,-149.858863,http://bustracker.muni.org/InfoPoint/departures.aspx?stopid=1747,1747
0427,0427,MEDFRA & 14TH AVENUE NNW,61.208836,-149.858905,http://bustracker.muni.org/InfoPoint/departures.aspx?stopid=1748,1748
0429,0429,CHUGACH VIEW,61.204812,-149.857968,http://bustracker.muni.org/InfoPoint/departures.aspx?stopid=1749,1749
0434,0434,15TH AVENUE & MEDFRA ESE,61.207574,-149.858185,http://bustracker.muni.org/InfoPoint/departures.aspx?stopid=1750,1750
0437,0437,DEBARR & CHARTER CIR WSW,61.207698,-149.835557,http://bustracker.muni.org/InfoPoint/departures.aspx?stopid=1751,1751
0438,0438,ALASKA REGIONAL HOSPITAL S,61.210132,-149.82634,http://bustracker.muni.org/InfoPoint/departures.aspx?stopid=1752,1752
0441,0441,PENLAND PKWY & PAUL LALONE ESE,61.215405,-149.820955,http://bustracker.muni.org/InfoPoint/departures.aspx?stopid=1753,1753
0442,0442,PENLAND PKWY & KIDS CT ESE,61.215499,-149.817183,http://bustracker.muni.org/InfoPoint/departures.aspx?stopid=1754,1754
0443,0443,PENLAND PKWY & NORTHWAY ESE,61.215685,-149.812126,http://bustracker.muni.org/InfoPoint/departures.aspx?stopid=1755,1755
0447,0447,DEBARR & BRAGAW ESE,61.209575,-149.80723,http://bustracker.muni.org/InfoPoint/departures.aspx?stopid=1758,1758
0448,0448,DEBARR & HOYT ESE,61.209581,-149.799486,http://bustracker.muni.org/InfoPoint/departures.aspx?stopid=1759,1759
0449,0449,DEBARR & PINE WSW,61.209583,-149.793936,http://bustracker.muni.org/InfoPoint/departures.aspx?stopid=1760,1760
0450,0450,DEBARR & L SELKREGG WSW,61.209582,-149.786848,http://bustracker.muni.org/InfoPoint/departures.aspx?stopid=1761,1761
0451,0451,DEBARR & BONIFACE WSW,61.209649,-149.779258,http://bustracker.muni.org/InfoPoint/departures.aspx?stopid=1762,1762
0452,0452,DEBARR & BONIFACE ESE,61.209635,-149.775917,http://bustracker.muni.org/InfoPoint/departures.aspx?stopid=1763,1763
0453,0453,DEBARR & BUCKNER ESE,61.209592,-149.771054,http://bustracker.muni.org/InfoPoint/departures.aspx?stopid=1764,1764
0454,0454,DEBARR & ATKINSON ESE,61.209594,-149.766396,http://bustracker.muni.org/InfoPoint/departures.aspx?stopid=1765,1765
0467,0467,TUDOR & BAXTER WNW,61.180919,-149.764611,http://bustracker.muni.org/InfoPoint/departures.aspx?stopid=1778,1778
0479,0479,PROVIDENCE & ELMORE WSW,61.188672,-149.810993,http://bustracker.muni.org/InfoPoint/departures.aspx?stopid=1779,1779
0501,0501,DEBARR & NUNAKA ENE,61.209833,-149.768476,http://bustracker.muni.org/InfoPoint/departures.aspx?stopid=1791,1791
0502,0502,DEBARR & BONIFACE ENE,61.209831,-149.774585,http://bustracker.muni.org/InfoPoint/departures.aspx?stopid=1792,1792
0503,0503,DEBARR & BONIFACE WNW,61.209853,-149.77975,http://bustracker.muni.org/InfoPoint/departures.aspx?stopid=1793,1793
0504,0504,DEBARR & L SELKREGG WNW,61.209822,-149.786999,http://bustracker.muni.org/InfoPoint/departures.aspx?stopid=1794,1794
0505,0505,DEBARR & PINE WNW,61.209826,-149.79462,http://bustracker.muni.org/InfoPoint/departures.aspx?stopid=1795,1795
0506,0506,DEBARR & HOYT WNW,61.209818,-149.800893,http://bustracker.muni.org/InfoPoint/departures.aspx?stopid=1796,1796
0507,0507,DEBARR & BRAGAW ENE,61.209817,-149.805476,http://bustracker.muni.org/InfoPoint/departures.aspx?stopid=1797,1797
0511,0511,PENLAND PKWY & BRAGAW WNW,61.216019,-149.810677,http://bustracker.muni.org/InfoPoint/departures.aspx?stopid=1800,1800
0513,0513,PENLAND PKWY & KIDS CT WNW,61.215584,-149.818406,http://bustracker.muni.org/InfoPoint/departures.aspx?stopid=1801,1801
0514,0514,PENLAND PKWY & PAUL LALONE N,61.215543,-149.821331,http://bustracker.muni.org/InfoPoint/departures.aspx?stopid=1802,1802
0517,0517,ALASKA REGIONAL HOSPITAL N,61.210245,-149.82623,http://bustracker.muni.org/InfoPoint/departures.aspx?stopid=1804,1804
0518,0518,DEBARR & ALASKA REGIONAL DR WNW,61.209447,-149.831827,http://bustracker.muni.org/InfoPoint/departures.aspx?stopid=1805,1805
0519,0519,15TH AVENUE & LAKE OTIS WNW,61.207836,-149.839462,http://bustracker.muni.org/InfoPoint/departures.aspx?stopid=1806,1806
0522,0522,MEDFRA & 16TH AVENUE SSW,61.205965,-149.858705,http://bustracker.muni.org/InfoPoint/departures.aspx?stopid=1807,1807
0524,0524,ORCA & 19TH AVENUE NNW,61.204076,-149.855264,http://bustracker.muni.org/InfoPoint/departures.aspx?stopid=1808,1808
0525,0525,CHUGACH MANOR,61.203517,-149.858462,http://bustracker.muni.org/InfoPoint/departures.aspx?stopid=1809,1809
0526,0526,KARLUK & 19TH AVENUE NNE,61.204304,-149.861335,http://bustracker.muni.org/InfoPoint/departures.aspx?stopid=1810,1810
0527,0527,MEDFRA & 16TH AVENUE NNE,61.206623,-149.858703,http://bustracker.muni.org/InfoPoint/departures.aspx?stopid=1811,1811
0528,0528,MEDFRA & 14TH AVENUE SSE,61.208605,-149.858675,http://bustracker.muni.org/InfoPoint/departures.aspx?stopid=1812,1812
0529,0529,MEDFRA & 12TH AVENUE NNE,61.210945,-149.858688,http://bustracker.muni.org/InfoPoint/departures.aspx?stopid=1813,1813
0530,0530,LATOUCHE & 10TH AVENUE NNE,61.212846,-149.860645,http://bustracker.muni.org/InfoPoint/departures.aspx?stopid=1814,1814
0531,0531,9TH AVENUE & KARLUK ENE,61.21369,-149.861644,http://bustracker.muni.org/InfoPoint/departures.aspx?stopid=1815,1815
0532,0532,9TH AVENUE & INGRA WNW,61.213714,-149.867725,http://bustracker.muni.org/InfoPoint/departures.aspx?stopid=1816,1816
0535,0535,CORDOVA & 8TH AVENUE SSE,61.21454,-149.87905,http://bustracker.muni.org/InfoPoint/departures.aspx?stopid=1817,1817
0550,0550,CORDOVA & 11TH AVENUE SSW,61.211371,-149.879329,http://bustracker.muni.org/InfoPoint/departures.aspx?stopid=1819,1819
0552,0552,13TH AVENUE & EAGLE ESE,61.209609,-149.87439,http://bustracker.muni.org/InfoPoint/departures.aspx?stopid=1821,1821
0554,0554,15TH AVENUE & GAMBELL ESE,61.207585,-149.869659,http://bustracker.muni.org/InfoPoint/departures.aspx?stopid=1823,1823
0555,0555,15TH AVENUE & INGRA ESE,61.207623,-149.865505,http://bustracker.muni.org/InfoPoint/departures.aspx?stopid=1824,1824
0556,0556,15TH AVENUE & KARLUK ESE,61.207569,-149.862212,http://bustracker.muni.org/InfoPoint/departures.aspx?stopid=1825,1825
0558,0558,15TH AVENUE & ORCA ESE,61.207588,-149.854073,http://bustracker.muni.org/InfoPoint/departures.aspx?stopid=1826,1826
0559,0559,15TH AVENUE & SITKA ESE,61.207632,-149.844498,http://bustracker.muni.org/InfoPoint/departures.aspx?stopid=1827,1827
0577,0577,ELMORE & SHARON GAGNON SSW,61.18492,-149.809055,http://bustracker.muni.org/InfoPoint/departures.aspx?stopid=1835,1835
0594,0594,NORTHERN LIGHTS & CMBL ARSTR ESE,61.195167,-149.76872,http://bustracker.muni.org/InfoPoint/departures.aspx?stopid=1847,1847
0611,0611,ELMORE & PROVIDENCE SSE,61.188319,-149.810213,http://bustracker.muni.org/InfoPoint/departures.aspx?stopid=1856,1856
0628,0628,15TH AVENUE & SITKA WNW,61.207798,-149.846484,http://bustracker.muni.org/InfoPoint/departures.aspx?stopid=1863,1863
0629,0629,15TH AVENUE & NELCHINA ENE,61.207809,-149.856392,http://bustracker.muni.org/InfoPoint/departures.aspx?stopid=1864,1864
0630,0630,15TH AVENUE & MEDFRA WNW,61.20781,-149.859415,http://bustracker.muni.org/InfoPoint/departures.aspx?stopid=1865,1865
0632,0632,15TH AVENUE & INGRA ENE,61.207811,-149.865041,http://bustracker.muni.org/InfoPoint/departures.aspx?stopid=1866,1866
0635,0635,13TH AVENUE & EAGLE WNW,61.209744,-149.875839,http://bustracker.muni.org/InfoPoint/departures.aspx?stopid=1868,1868
0636,0636,13TH AVENUE & CORDOVA ENE,61.209749,-149.878282,http://bustracker.muni.org/InfoPoint/departures.aspx?stopid=1869,1869
0637,0637,CORDOVA & 11TH AVENUE SSE,61.211585,-149.879021,http://bustracker.muni.org/InfoPoint/departures.aspx?stopid=1870,1870
0640,0640,CORDOVA & 6TH AVENUE NNE,61.216944,-149.87905,http://bustracker.muni.org/InfoPoint/departures.aspx?stopid=1872,1872
0652,0652,9TH AVENUE & C STREET WNW,61.213673,-149.88852,http://bustracker.muni.org/InfoPoint/departures.aspx?stopid=1873,1873
0653,0653,E STREET & 10TH AVENUE NNW,61.212841,-149.891602,http://bustracker.muni.org/InfoPoint/departures.aspx?stopid=1874,1874
0654,0654,E STREET & 12TH AVENUE SSW,61.210324,-149.891561,http://bustracker.muni.org/InfoPoint/departures.aspx?stopid=1875,1875
0655,0655,E STREET & 14TH AVENUE SSW,61.208368,-149.891574,http://bustracker.muni.org/InfoPoint/departures.aspx?stopid=1876,1876
0656,0656,17TH AVENUE & E STREET WNW,61.205314,-149.89336,http://bustracker.muni.org/InfoPoint/departures.aspx?stopid=1877,1877
0657,0657,ARCTIC & 19TH AVENUE SSW,61.203142,-149.897905,http://bustracker.muni.org/InfoPoint/departures.aspx?stopid=1878,1878
0658,0658,ARCTIC & 22ND AVENUE NNW,61.201067,-149.897917,http://bustracker.muni.org/InfoPoint/departures.aspx?stopid=1879,1879
0659,0659,ARCTIC & FIREWEED SSW,61.198122,-149.89808,http://bustracker.muni.org/InfoPoint/departures.aspx?stopid=1880,1880
0660,0660,ARCTIC & 27TH AVENUE SSW,61.195986,-149.898141,http://bustracker.muni.org/InfoPoint/departures.aspx?stopid=1881,1881
0661,0661,ARCTIC & BENSON NNW,61.194511,-149.898114,http://bustracker.muni.org/InfoPoint/departures.aspx?stopid=1882,1882
0662,0662,ARCTIC & 30TH AVENUE SSW,61.192542,-149.89812,http://bustracker.muni.org/InfoPoint/departures.aspx?stopid=1883,1883
0664,0664,ARCTIC & 34TH AVENUE SSW,61.189159,-149.898136,http://bustracker.muni.org/InfoPoint/departures.aspx?stopid=1884,1884
0666,0666,ARCTIC & CHUGACH WAY NNW,61.186477,-149.898122,http://bustracker.muni.org/InfoPoint/departures.aspx?stopid=1886,1886
0667,0667,ARCTIC & 41ST AVENUE SSW,61.183871,-149.898111,http://bustracker.muni.org/InfoPoint/departures.aspx?stopid=1887,1887
0668,0668,ARCTIC & TUDOR SSW,61.179537,-149.898123,http://bustracker.muni.org/InfoPoint/departures.aspx?stopid=1888,1888
0669,0669,ARCTIC & LANCASTER SSW,61.175565,-149.8981,http://bustracker.muni.org/InfoPoint/departures.aspx?stopid=1889,1889
0670,0670,ARCTIC & INTL ARPT RD SSW,61.173133,-149.898113,http://bustracker.muni.org/InfoPoint/departures.aspx?stopid=1890,1890
0671,0671,ARCTIC & 54TH AVENUE SSW,61.170978,-149.898171,http://bustracker.muni.org/InfoPoint/departures.aspx?stopid=1891,1891
0674,0674,ARCTIC & 58TH AVENUE SSW,61.167841,-149.898169,http://bustracker.muni.org/InfoPoint/departures.aspx?stopid=1893,1893
0675,0675,ARCTIC & ARCTIC SPUR RD SSW,61.163721,-149.89493,http://bustracker.muni.org/InfoPoint/departures.aspx?stopid=1894,1894
0676,0676,ARCTIC & RASPBERRY SSW,61.158515,-149.892282,http://bustracker.muni.org/InfoPoint/departures.aspx?stopid=1895,1895
0677,0677,ARCTIC & 70TH AVENUE SSW,61.15687,-149.892223,http://bustracker.muni.org/InfoPoint/departures.aspx?stopid=1896,1896
0678,0678,ARCTIC & 74TH AVENUE NNW,61.154144,-149.892211,http://bustracker.muni.org/InfoPoint/departures.aspx?stopid=1897,1897
0679,0679,ARCTIC & 76TH AVENUE SSW,61.151638,-149.892303,http://bustracker.muni.org/InfoPoint/departures.aspx?stopid=1898,1898
0680,0680,ARCTIC & 81ST AVENUE NNW,61.149017,-149.89229,http://bustracker.muni.org/InfoPoint/departures.aspx?stopid=1899,1899
0682,0682,DIMOND & KING WNW,61.144903,-149.880355,http://bustracker.muni.org/InfoPoint/departures.aspx?stopid=1900,1900
0683,0683,DIMOND & ARCTIC ESE,61.144463,-149.890697,http://bustracker.muni.org/InfoPoint/departures.aspx?stopid=1901,1901
0684,0684,DIMOND & C STREET ESE,61.144557,-149.885168,http://bustracker.muni.org/InfoPoint/departures.aspx?stopid=1902,1902
0685,0685,DIMOND & KING ESE,61.144568,-149.877425,http://bustracker.muni.org/InfoPoint/departures.aspx?stopid=1903,1903
0694,0694,ARCTIC & DIMOND NNE,61.14555,-149.891887,http://bustracker.muni.org/InfoPoint/departures.aspx?stopid=1904,1904
0696,0696,ARCTIC & HIGHLANDER S NNE,61.149121,-149.89192,http://bustracker.muni.org/InfoPoint/departures.aspx?stopid=1905,1905
0697,0697,ARCTIC & 76TH AVENUE NNE,61.152377,-149.89187,http://bustracker.muni.org/InfoPoint/departures.aspx?stopid=1906,1906
0698,0698,ARCTIC & 74TH AVENUE NNE,61.153981,-149.891853,http://bustracker.muni.org/InfoPoint/departures.aspx?stopid=1907,1907
0699,0699,ARCTIC & 72ND AVENUE NNE,61.155539,-149.891855,http://bustracker.muni.org/InfoPoint/departures.aspx?stopid=1908,1908
0700,0700,ARCTIC & 70TH AVENUE NNE,61.15754,-149.891925,http://bustracker.muni.org/InfoPoint/departures.aspx?stopid=1909,1909
0701,0701,ARCTIC & RASPBERRY NNE,61.159903,-149.891887,http://bustracker.muni.org/InfoPoint/departures.aspx?stopid=1910,1910
0702,0702,ARCTIC & ARCTIC SPUR RD ENE,61.164262,-149.895445,http://bustracker.muni.org/InfoPoint/departures.aspx?stopid=1911,1911
0703,0703,ARCTIC & 58TH AVENUE SSE,61.168739,-149.897784,http://bustracker.muni.org/InfoPoint/departures.aspx?stopid=1912,1912
0704,0704,ARCTIC & POTTER NNE,61.171563,-149.897832,http://bustracker.muni.org/InfoPoint/departures.aspx?stopid=1913,1913
0706,0706,ARCTIC & INTL ARPT RD NNE,61.174199,-149.897688,http://bustracker.muni.org/InfoPoint/departures.aspx?stopid=1915,1915
0707,0707,ARCTIC & 47TH AVENUE SSE,61.177043,-149.897742,http://bustracker.muni.org/InfoPoint/departures.aspx?stopid=1916,1916
0708,0708,ARCTIC & 46TH AVENUE SSE,61.178836,-149.897763,http://bustracker.muni.org/InfoPoint/departures.aspx?stopid=1917,1917
0709,0709,ARCTIC & TUDOR NNE,61.181137,-149.897723,http://bustracker.muni.org/InfoPoint/departures.aspx?stopid=1918,1918
0710,0710,ARCTIC & 41ST AVENUE NNE,61.184199,-149.897811,http://bustracker.muni.org/InfoPoint/departures.aspx?stopid=1919,1919
0711,0711,ARCTIC & 36TH AVENUE SSE,61.187186,-149.897827,http://bustracker.muni.org/InfoPoint/departures.aspx?stopid=1920,1920
0712,0712,ARCTIC & 34TH AVENUE NNE,61.190028,-149.897778,http://bustracker.muni.org/InfoPoint/departures.aspx?stopid=1921,1921
0713,0713,ARCTIC & 32ND AVENUE NNE,61.191915,-149.897785,http://bustracker.muni.org/InfoPoint/departures.aspx?stopid=1922,1922
0714,0714,ARCTIC & NORTHERN LIGHTS SSE,61.194934,-149.897759,http://bustracker.muni.org/InfoPoint/departures.aspx?stopid=1923,1923
0715,0715,ARCTIC & NORTHERN LIGHTS NNE,61.195971,-149.897785,http://bustracker.muni.org/InfoPoint/departures.aspx?stopid=1924,1924
0716,0716,ARCTIC & FIREWEED NNE,61.199038,-149.897712,http://bustracker.muni.org/InfoPoint/departures.aspx?stopid=1925,1925
0717,0717,ARCTIC & 22ND AVENUE NNE,61.201366,-149.897658,http://bustracker.muni.org/InfoPoint/departures.aspx?stopid=1926,1926
0718,0718,ARCTIC & 19TH AVENUE SSE,61.203273,-149.897681,http://bustracker.muni.org/InfoPoint/departures.aspx?stopid=1927,1927
0720,0720,E STREET & 14TH AVENUE NNE,61.209055,-149.891314,http://bustracker.muni.org/InfoPoint/departures.aspx?stopid=1928,1928
0721,0721,E STREET & 12TH AVENUE NNE,61.211014,-149.891335,http://bustracker.muni.org/InfoPoint/departures.aspx?stopid=1929,1929
0722,0722,E STREET & 10TH AVENUE NNE,61.212918,-149.891274,http://bustracker.muni.org/InfoPoint/departures.aspx?stopid=1930,1930
0734,0734,6TH AVENUE & CORDOVA WSW,61.216545,-149.88,http://bustracker.muni.org/InfoPoint/departures.aspx?stopid=1931,1931
0736,0736,6TH AVENUE & INGRA WSW,61.216485,-149.868038,http://bustracker.muni.org/InfoPoint/departures.aspx?stopid=1933,1933
0737,0737,6TH AVENUE & KARLUK ESE,61.216663,-149.861675,http://bustracker.muni.org/InfoPoint/departures.aspx?stopid=1934,1934
0747,0747,PENLAND PKWY & BRAGAW WSW,61.215861,-149.808749,http://bustracker.muni.org/InfoPoint/departures.aspx?stopid=1941,1941
0748,0748,7TH AVENUE & BRAGAW ESE,61.21587,-149.807364,http://bustracker.muni.org/InfoPoint/departures.aspx?stopid=1942,1942
0749,0749,7TH AVENUE & KLEVIN WSW,61.215889,-149.805239,http://bustracker.muni.org/InfoPoint/departures.aspx?stopid=1943,1943
0750,0750,KLEVIN & 7TH AVENUE NNE,61.216175,-149.804512,http://bustracker.muni.org/InfoPoint/departures.aspx?stopid=1944,1944
0751,0751,KLEVIN & 4TH AVENUE SSE,61.218581,-149.804512,http://bustracker.muni.org/InfoPoint/departures.aspx?stopid=1945,1945
0754,0754,4TH AVENUE & SHAW WSW,61.218678,-149.798963,http://bustracker.muni.org/InfoPoint/departures.aspx?stopid=1947,1947
0755,0755,4TH AVENUE & PINE WSW,61.218697,-149.794306,http://bustracker.muni.org/InfoPoint/departures.aspx?stopid=1948,1948
0756,0756,KENAI & PINE ESE,61.22019,-149.792276,http://bustracker.muni.org/InfoPoint/departures.aspx?stopid=1949,1949
0757,0757,KENAI & STEWART WSW,61.220172,-149.788515,http://bustracker.muni.org/InfoPoint/departures.aspx?stopid=1950,1950
0758,0758,LIONHEART & FIREOVED DR ESE,61.220517,-149.78434,http://bustracker.muni.org/InfoPoint/departures.aspx?stopid=1951,1951
0768,0768,TURPIN & QUEENSVIEW NNE,61.216365,-149.755885,http://bustracker.muni.org/InfoPoint/departures.aspx?stopid=1960,1960
0769,0769,TURPIN & 4TH AVENUE SSE,61.218327,-149.755813,http://bustracker.muni.org/InfoPoint/departures.aspx?stopid=1961,1961
0770,0770,TURPIN & 2ND AVENUE NNE,61.22094,-149.755825,http://bustracker.muni.org/InfoPoint/departures.aspx?stopid=1962,1962
0771,0771,BOUNDARY & TURPIN ESE,61.222848,-149.755078,http://bustracker.muni.org/InfoPoint/departures.aspx?stopid=1963,1963
0772,0772,BOUNDARY & PATTERSON ESE,61.22417,-149.747893,http://bustracker.muni.org/InfoPoint/departures.aspx?stopid=1964,1964
0773,0773,OKLAHOMA ST & BOUNDARY SSW,61.223825,-149.744946,http://bustracker.muni.org/InfoPoint/departures.aspx?stopid=1965,1965
0774,0774,OKLAHOMA ST & PECK NNW,61.222454,-149.744932,http://bustracker.muni.org/InfoPoint/departures.aspx?stopid=1966,1966
0775,0775,OKLAHOMA ST & DUBEN SSW,61.220232,-149.744865,http://bustracker.muni.org/InfoPoint/departures.aspx?stopid=1967,1967
0776,0776,OKLAHOMA ST & 4TH AVENUE NNW,61.218842,-149.744807,http://bustracker.muni.org/InfoPoint/departures.aspx?stopid=1968,1968
0777,0777,OKLAHOMA ST & 6TH AVENUE NNW,61.217086,-149.744803,http://bustracker.muni.org/InfoPoint/departures.aspx?stopid=1969,1969
0778,0778,6TH AVENUE & CREEKSIDE WSW,61.216918,-149.741557,http://bustracker.muni.org/InfoPoint/departures.aspx?stopid=1970,1970
0779,0779,6TH AVENUE & IDAHO ESE,61.216885,-149.736835,http://bustracker.muni.org/InfoPoint/departures.aspx?stopid=1971,1971
0780,0780,6TH AVENUE & MULDOON WSW,61.216866,-149.734397,http://bustracker.muni.org/InfoPoint/departures.aspx?stopid=1972,1972
0784,0784,PECK AVENUE & GRAND LARRY ESE,61.222341,-149.729015,http://bustracker.muni.org/InfoPoint/departures.aspx?stopid=1973,1973
0785,0785,PECK AVENUE & PLACE ST ESE,61.222288,-149.723246,http://bustracker.muni.org/InfoPoint/departures.aspx?stopid=1974,1974
0786,0786,PECK AVENUE & ORANGE LEAF ESE,61.22234,-149.718922,http://bustracker.muni.org/InfoPoint/departures.aspx?stopid=1975,1975
0787,0787,CENTENNIAL & PECK NNW,61.222638,-149.717454,http://bustracker.muni.org/InfoPoint/departures.aspx?stopid=1976,1976
0789,0789,PECK AVENUE & ORANGE LEAF ENE,61.222449,-149.719525,http://bustracker.muni.org/InfoPoint/departures.aspx?stopid=1977,1977
0790,0790,PECK AVENUE & PLACE WNW,61.222438,-149.724134,http://bustracker.muni.org/InfoPoint/departures.aspx?stopid=1978,1978
0791,0791,PECK AVENUE & GRAND LARRY ENE,61.222441,-149.728986,http://bustracker.muni.org/InfoPoint/departures.aspx?stopid=1979,1979
0793,0793,MULDOON & DUBEN NNW,61.221014,-149.733744,http://bustracker.muni.org/InfoPoint/departures.aspx?stopid=1980,1980
0794,0794,MULDOON & 4TH AVENUE NNW,61.218911,-149.733782,http://bustracker.muni.org/InfoPoint/departures.aspx?stopid=1981,1981
0795,0795,6TH AVENUE & MULDOON WNW,61.217027,-149.734303,http://bustracker.muni.org/InfoPoint/departures.aspx?stopid=1982,1982
0796,0796,6TH AVENUE & IDAHO WNW,61.216998,-149.737624,http://bustracker.muni.org/InfoPoint/departures.aspx?stopid=1983,1983
0797,0797,6TH AVENUE & CREEKSIDE WNW,61.217037,-149.741705,http://bustracker.muni.org/InfoPoint/departures.aspx?stopid=1984,1984
0798,0798,OKLAHOMA ST & 6TH AVENUE NNE,61.217333,-149.744651,http://bustracker.muni.org/InfoPoint/departures.aspx?stopid=1985,1985
0799,0799,OKLAHOMA ST & 4TH AVENUE NNE,61.218955,-149.744689,http://bustracker.muni.org/InfoPoint/departures.aspx?stopid=1986,1986
0800,0800,OKLAHOMA ST & DUBEN NNE,61.220716,-149.744663,http://bustracker.muni.org/InfoPoint/departures.aspx?stopid=1987,1987
0801,0801,OKLAHOMA ST & PECK NNE,61.222618,-149.74468,http://bustracker.muni.org/InfoPoint/departures.aspx?stopid=1988,1988
0802,0802,OKLAHOMA ST & BOUNDARY SSE,61.223968,-149.744681,http://bustracker.muni.org/InfoPoint/departures.aspx?stopid=1989,1989
0803,0803,BOUNDARY & PATTERSON ENE,61.224226,-149.748244,http://bustracker.muni.org/InfoPoint/departures.aspx?stopid=1990,1990
0804,0804,BOUNDARY & TURPIN ENE,61.222894,-149.755472,http://bustracker.muni.org/InfoPoint/departures.aspx?stopid=1991,1991
0805,0805,TURPIN & 2ND AVENUE SSW,61.220286,-149.756066,http://bustracker.muni.org/InfoPoint/departures.aspx?stopid=1992,1992
0806,0806,TURPIN & 4TH AVENUE SSW,61.218657,-149.756083,http://bustracker.muni.org/InfoPoint/departures.aspx?stopid=1993,1993
0807,0807,TURPIN & 6TH AVENUE SSW,61.21685,-149.75604,http://bustracker.muni.org/InfoPoint/departures.aspx?stopid=1994,1994
0817,0817,LIONHEART & FIREOVED DR WNW,61.220623,-149.784937,http://bustracker.muni.org/InfoPoint/departures.aspx?stopid=2003,2003
0818,0818,KENAI & STEWART WNW,61.220268,-149.788479,http://bustracker.muni.org/InfoPoint/departures.aspx?stopid=2004,2004
0820,0820,4TH AVENUE & PINE WNW,61.218807,-149.794373,http://bustracker.muni.org/InfoPoint/departures.aspx?stopid=2005,2005
0821,0821,4TH AVENUE & SHAW WNW,61.218808,-149.798769,http://bustracker.muni.org/InfoPoint/departures.aspx?stopid=2006,2006
0823,0823,KLEVIN & 4TH AVENUE SSW,61.218552,-149.804719,http://bustracker.muni.org/InfoPoint/departures.aspx?stopid=2008,2008
0824,0824,7TH AVENUE & KLEVIN WNW,61.215987,-149.805231,http://bustracker.muni.org/InfoPoint/departures.aspx?stopid=2009,2009
0826,0826,PENLAND PKWY & NORTHWAY WNW,61.215669,-149.813189,http://bustracker.muni.org/InfoPoint/departures.aspx?stopid=2010,2010
0829,0829,5TH AVENUE & AIRPORT HGTS WNW,61.21778,-149.827712,http://bustracker.muni.org/InfoPoint/departures.aspx?stopid=2011,2011
0833,0833,5TH AVENUE & CONCRETE WNW,61.217632,-149.850925,http://bustracker.muni.org/InfoPoint/departures.aspx?stopid=2014,2014
0835,0835,5TH AVENUE & KARLUK ENE,61.217638,-149.861238,http://bustracker.muni.org/InfoPoint/departures.aspx?stopid=2015,2015
0836,0836,5TH AVENUE & GAMBELL WNW,61.217632,-149.871758,http://bustracker.muni.org/InfoPoint/departures.aspx?stopid=2016,2016
0839,0839,5TH AVENUE & BARROW WNW,61.217673,-149.882008,http://bustracker.muni.org/InfoPoint/departures.aspx?stopid=2018,2018
0851,0851,A STREET & 3RD AVENUE NNE,61.220023,-149.883717,http://bustracker.muni.org/InfoPoint/departures.aspx?stopid=2019,2019
0852,0852,LOOP & BLUFF SSE,61.231075,-149.8726,http://bustracker.muni.org/InfoPoint/departures.aspx?stopid=2020,2020
0853,0853,BLUFF & BIRCH ESE,61.230867,-149.86963,http://bustracker.muni.org/InfoPoint/departures.aspx?stopid=2021,2021
0854,0854,BLUFF & DOGWOOD ESE,61.230368,-149.866043,http://bustracker.muni.org/InfoPoint/departures.aspx?stopid=2022,2022
0855,0855,RICHARDSON VISTA & BLDG 19 EAST,61.230683,-149.861203,http://bustracker.muni.org/InfoPoint/departures.aspx?stopid=2023,2023
0856,0856,RICHARDSON VISTA & BLDG 14 SOUTH,61.230478,-149.85709,http://bustracker.muni.org/InfoPoint/departures.aspx?stopid=2024,2024
0857,0857,RICHARDSON VISTA & BLDG 12 WEST,61.229348,-149.855157,http://bustracker.muni.org/InfoPoint/departures.aspx?stopid=2025,2025
0858,0858,IVY & HOLLYWOOD NNW,61.22828,-149.858245,http://bustracker.muni.org/InfoPoint/departures.aspx?stopid=2026,2026
0859,0859,HOLLYWOOD & GUM ENE,61.228714,-149.861853,http://bustracker.muni.org/InfoPoint/departures.aspx?stopid=2027,2027
0860,0860,HOLLYWOOD & ELM ENE,61.22917,-149.864998,http://bustracker.muni.org/InfoPoint/departures.aspx?stopid=2028,2028
0861,0861,HOLLYWOOD & LOOP ENE,61.2303,-149.873352,http://bustracker.muni.org/InfoPoint/departures.aspx?stopid=2029,2029
0916,0916,OLD GLENN & CENTERFIELD NNW,61.322757,-149.570576,http://bustracker.muni.org/InfoPoint/departures.aspx?stopid=2039,2039
0917,0917,OLD GLENN & EAGLE RIVER ROAD ESE,61.320313,-149.570707,http://bustracker.muni.org/InfoPoint/departures.aspx?stopid=2040,2040
0957,0957,HILLCREST & WEST HIGH SCHOOL S,61.200949,-149.914986,http://bustracker.muni.org/InfoPoint/departures.aspx?stopid=2042,2042
0958,0958,HILLCREST & ROMIG PLACE ESE,61.200527,-149.909789,http://bustracker.muni.org/InfoPoint/departures.aspx?stopid=2043,2043
0959,0959,SPENARD & FIREWEED NNW,61.199168,-149.905968,http://bustracker.muni.org/InfoPoint/departures.aspx?stopid=2044,2044
0992,0992,OLD SEWARD & DIMOND SSW,61.14402,-149.864385,http://bustracker.muni.org/InfoPoint/departures.aspx?stopid=2071,2071
1015,1015,HUFFMAN & SILVERFOX ESE,61.108556,-149.859913,http://bustracker.muni.org/InfoPoint/departures.aspx?stopid=2087,2087
1071,1071,SPENARD & HILLCREST SSE,61.200246,-149.90745,http://bustracker.muni.org/InfoPoint/departures.aspx?stopid=2126,2126
1072,1072,SPENARD & 19TH AVENUE NNE,61.203679,-149.905504,http://bustracker.muni.org/InfoPoint/departures.aspx?stopid=2127,2127
1075,1075,I STREET & 11TH AVENUE SSE,61.211445,-149.89949,http://bustracker.muni.org/InfoPoint/departures.aspx?stopid=2128,2128
1089,1089,NORTHERN LIGHTS & MULDOON WNW,61.195397,-149.736429,http://bustracker.muni.org/InfoPoint/departures.aspx?stopid=2130,2130
1100,1100,NORTHERN LIGHTS & ARCA DR ENE,61.19906,-149.81666,http://bustracker.muni.org/InfoPoint/departures.aspx?stopid=2131,2131
1123,1123,SPENARD & 36TH AVENUE SSW,61.187809,-149.908954,http://bustracker.muni.org/InfoPoint/departures.aspx?stopid=2141,2141
1135,1135,SPENARD & IOWA WNW,61.18292,-149.929105,http://bustracker.muni.org/InfoPoint/departures.aspx?stopid=2152,2152
1136,1136,SPENARD & BARBARA WNW,61.18212,-149.932973,http://bustracker.muni.org/InfoPoint/departures.aspx?stopid=2153,2153
1137,1137,SPENARD & TURNAGAIN BLVD WNW,61.181557,-149.935655,http://bustracker.muni.org/InfoPoint/departures.aspx?stopid=2154,2154
1138,1138,SPENARD & LAKESHORE WNW,61.180332,-149.9382,http://bustracker.muni.org/InfoPoint/departures.aspx?stopid=2155,2155
1158,1158,I STREET & 15TH AVENUE NNE,61.208166,-149.89948,http://bustracker.muni.org/InfoPoint/departures.aspx?stopid=2173,2173
1159,1159,I STREET & 13TH AVENUE NNE,61.20989,-149.899466,http://bustracker.muni.org/InfoPoint/departures.aspx?stopid=2174,2174
1161,1161,I STREET & 9TH AVENUE SSE,61.213314,-149.899458,http://bustracker.muni.org/InfoPoint/departures.aspx?stopid=2175,2175
1166,1166,5TH AVENUE & B STREET WNW,61.217663,-149.886447,http://bustracker.muni.org/InfoPoint/departures.aspx?stopid=2176,2176
1172,1172,L STREET & 9TH AVENUE SSW,61.213312,-149.903807,http://bustracker.muni.org/InfoPoint/departures.aspx?stopid=2177,2177
1173,1173,L STREET & 11TH AVENUE SSW,61.211336,-149.903843,http://bustracker.muni.org/InfoPoint/departures.aspx?stopid=2178,2178
1174,1174,L STREET & 13TH AVENUE SSW,61.209409,-149.903821,http://bustracker.muni.org/InfoPoint/departures.aspx?stopid=2179,2179
1175,1175,MINNESOTA & 26TH AVENUE SSW,61.197062,-149.913412,http://bustracker.muni.org/InfoPoint/departures.aspx?stopid=2180,2180
1193,1193,SPENARD & FORREST SSE,61.181644,-149.934613,http://bustracker.muni.org/InfoPoint/departures.aspx?stopid=2196,2196
1194,1194,SPENARD & IOWA SSE,61.182522,-149.92922,http://bustracker.muni.org/InfoPoint/departures.aspx?stopid=2197,2197
1228,1228,NORTHERN LIGHTS & BRAGAW ESE,61.198672,-149.807013,http://bustracker.muni.org/InfoPoint/departures.aspx?stopid=2213,2213
1230,1230,NORTHERN LIGHTS & WESLEYAN ESE,61.195107,-149.786908,http://bustracker.muni.org/InfoPoint/departures.aspx?stopid=2214,2214
1231,1231,NORTHERN LIGHTS & SUNFLOWER ESE,61.19514,-149.782938,http://bustracker.muni.org/InfoPoint/departures.aspx?stopid=2215,2215
1232,1232,NORTHERN LIGHTS & BONIFACE ESE,61.195092,-149.775854,http://bustracker.muni.org/InfoPoint/departures.aspx?stopid=2216,2216
1234,1234,NORTHERN LIGHTS & BAXTER ESE,61.195161,-149.762206,http://bustracker.muni.org/InfoPoint/departures.aspx?stopid=2217,2217
1235,1235,NORTHERN LIGHTS & CIMMARON ESE,61.195175,-149.757335,http://bustracker.muni.org/InfoPoint/departures.aspx?stopid=2218,2218
1236,1236,NORTHERN LIGHTS & BRITTANY ESE,61.195125,-149.752912,http://bustracker.muni.org/InfoPoint/departures.aspx?stopid=2219,2219
1237,1237,NORTHERN LIGHTS & PATTERSON ESE,61.195187,-149.747078,http://bustracker.muni.org/InfoPoint/departures.aspx?stopid=2220,2220
1238,1238,NORTHERN LIGHTS & AUGUSTINE ESE,61.195212,-149.741497,http://bustracker.muni.org/InfoPoint/departures.aspx?stopid=2221,2221
1240,1240,MULDOON & NORTHERN LIGHTS NNE,61.196312,-149.733247,http://bustracker.muni.org/InfoPoint/departures.aspx?stopid=2222,2222
1253,1253,A STREET & 6TH AVENUE NNE,61.217302,-149.883157,http://bustracker.muni.org/InfoPoint/departures.aspx?stopid=2223,2223
1254,1254,4TH AVENUE & BARROW ESE,61.2185,-149.880675,http://bustracker.muni.org/InfoPoint/departures.aspx?stopid=2224,2224
1256,1256,4TH AVENUE & EAGLE ESE,61.218495,-149.874533,http://bustracker.muni.org/InfoPoint/departures.aspx?stopid=2226,2226
1257,1257,4TH AVENUE & HYDER WSW,61.218462,-149.869659,http://bustracker.muni.org/InfoPoint/departures.aspx?stopid=2227,2227
1258,1258,4TH AVENUE & KARLUK ESE,61.218518,-149.862052,http://bustracker.muni.org/InfoPoint/departures.aspx?stopid=2228,2228
1259,1259,3RD AVENUE & POST ROAD ESE,61.219411,-149.8571,http://bustracker.muni.org/InfoPoint/departures.aspx?stopid=2229,2229
1261,1261,3RD AVENUE & CONCRETE ESE,61.219254,-149.849236,http://bustracker.muni.org/InfoPoint/departures.aspx?stopid=2230,2230
1262,1262,3RD AVENUE & UNGA ESE,61.21942,-149.841129,http://bustracker.muni.org/InfoPoint/departures.aspx?stopid=2231,2231
1263,1263,3RD AVENUE & REEVE WSW,61.219396,-149.837213,http://bustracker.muni.org/InfoPoint/departures.aspx?stopid=2232,2232
1264,1264,COMMERCIAL & CHIPPERFIELD ESE,61.220422,-149.8331,http://bustracker.muni.org/InfoPoint/departures.aspx?stopid=2233,2233
1266,1266,COMMERCIAL & 2800 S,61.222661,-149.829288,http://bustracker.muni.org/InfoPoint/departures.aspx?stopid=2235,2235
1267,1267,COMMERCIAL & MEYER WSW,61.224073,-149.823434,http://bustracker.muni.org/InfoPoint/departures.aspx?stopid=2236,2236
1268,1268,COMMERCIAL & TAYLOR WSW,61.224019,-149.817109,http://bustracker.muni.org/InfoPoint/departures.aspx?stopid=2237,2237
1269,1269,MOUNTAIN VIEW & TAYLOR ESE,61.224034,-149.814712,http://bustracker.muni.org/InfoPoint/departures.aspx?stopid=2238,2238
1289,1289,NORTHWAY & PENLAND SSW,61.21534,-149.812651,http://bustracker.muni.org/InfoPoint/departures.aspx?stopid=2252,2252
1290,1290,NORTHWAY & 800 NORTHWAY WEST,61.214052,-149.81236,http://bustracker.muni.org/InfoPoint/departures.aspx?stopid=2253,2253
1291,1291,SAN JERONIMO & NORTHWAY ESE,61.211551,-149.811247,http://bustracker.muni.org/InfoPoint/departures.aspx?stopid=2254,2254
1292,1292,SAN JERONIMO & BRAGAW WSW,61.211566,-149.808707,http://bustracker.muni.org/InfoPoint/departures.aspx?stopid=2255,2255
1294,1294,BRAGAW & 16TH AVENUE NNW,61.206494,-149.808507,http://bustracker.muni.org/InfoPoint/departures.aspx?stopid=2256,2256
1295,1295,BRAGAW & 19TH AVENUE SSW,61.203669,-149.808574,http://bustracker.muni.org/InfoPoint/departures.aspx?stopid=2257,2257
1296,1296,BRAGAW & 20TH AVENUE SSW,61.202078,-149.808542,http://bustracker.muni.org/InfoPoint/departures.aspx?stopid=2258,2258
1299,1299,LAKE OTIS & NORTHERN LIGHTS SSW,61.194669,-149.838505,http://bustracker.muni.org/InfoPoint/departures.aspx?stopid=2259,2259
1300,1300,LAKE OTIS & CORNELL SSW,61.191708,-149.838425,http://bustracker.muni.org/InfoPoint/departures.aspx?stopid=2260,2260
1301,1301,PROVIDENCE & LAKE OTIS ESE,61.187911,-149.836996,http://bustracker.muni.org/InfoPoint/departures.aspx?stopid=2261,2261
1302,1302,PROVIDENCE & PIPER WSW,61.187899,-149.831632,http://bustracker.muni.org/InfoPoint/departures.aspx?stopid=2262,2262
1307,1307,PROVIDENCE & SPIRIT WNW,61.188501,-149.825312,http://bustracker.muni.org/InfoPoint/departures.aspx?stopid=2263,2263
1308,1308,PROVIDENCE & SEAWOLF WNW,61.188185,-149.832642,http://bustracker.muni.org/InfoPoint/departures.aspx?stopid=2264,2264
1312,1312,NORTHERN LIGHTS & UAA DR ESE,61.196036,-149.82644,http://bustracker.muni.org/InfoPoint/departures.aspx?stopid=2265,2265
1313,1313,NORTHERN LIGHTS & ARCA DR ESE,61.198743,-149.816012,http://bustracker.muni.org/InfoPoint/departures.aspx?stopid=2266,2266
1314,1314,BRAGAW & NORTHERN LIGHTS NNE,61.199535,-149.808033,http://bustracker.muni.org/InfoPoint/departures.aspx?stopid=2267,2267
1315,1315,BRAGAW & 20TH AVENUE NNE,61.20287,-149.808091,http://bustracker.muni.org/InfoPoint/departures.aspx?stopid=2268,2268
1316,1316,BRAGAW & 16TH AVENUE NNE,61.20689,-149.808151,http://bustracker.muni.org/InfoPoint/departures.aspx?stopid=2269,2269
1317,1317,DEBARR & BRAGAW WNW,61.209858,-149.809884,http://bustracker.muni.org/InfoPoint/departures.aspx?stopid=2270,2270
1318,1318,NORTHWAY & SAN JERONIMO SSE,61.211295,-149.812253,http://bustracker.muni.org/InfoPoint/departures.aspx?stopid=2271,2271
1319,1319,NORTHWAY & 801 NORTHWAY EAST,61.214559,-149.811965,http://bustracker.muni.org/InfoPoint/departures.aspx?stopid=2272,2272
1320,1320,NORTHWAY & PENLAND SSE,61.215504,-149.812297,http://bustracker.muni.org/InfoPoint/departures.aspx?stopid=2273,2273
1334,1334,LANE & THOMPSON NNE,61.228096,-149.797013,http://bustracker.muni.org/InfoPoint/departures.aspx?stopid=2282,2282
1335,1335,PARSONS & LANE WNW,61.229652,-149.797955,http://bustracker.muni.org/InfoPoint/departures.aspx?stopid=2283,2283
1336,1336,PARSONS & KLEVIN NORTH ENE,61.229641,-149.803834,http://bustracker.muni.org/InfoPoint/departures.aspx?stopid=2284,2284
1337,1337,PARSONS & FLOWER NORTH WNW,61.229641,-149.806874,http://bustracker.muni.org/InfoPoint/departures.aspx?stopid=2285,2285
1338,1338,BRAGAW & PARSONS SSW,61.229065,-149.808594,http://bustracker.muni.org/InfoPoint/departures.aspx?stopid=2286,2286
1339,1339,BRAGAW & THOMPSON SSW,61.227228,-149.808536,http://bustracker.muni.org/InfoPoint/departures.aspx?stopid=2287,2287
1340,1340,BRAGAW & PETERKIN SSW,61.225428,-149.808593,http://bustracker.muni.org/InfoPoint/departures.aspx?stopid=2288,2288
1341,1341,MOUNTAIN VIEW & BRAGAW WNW,61.224231,-149.810071,http://bustracker.muni.org/InfoPoint/departures.aspx?stopid=2289,2289
1342,1342,MOUNTAIN VIEW & PRICE WNW,61.224232,-149.812792,http://bustracker.muni.org/InfoPoint/departures.aspx?stopid=2290,2290
1343,1343,COMMERCIAL & TAYLOR WNW,61.224244,-149.817985,http://bustracker.muni.org/InfoPoint/departures.aspx?stopid=2291,2291
1344,1344,COMMERCIAL & MEYER WNW,61.224241,-149.823841,http://bustracker.muni.org/InfoPoint/departures.aspx?stopid=2292,2292
1345,1345,COMMERCIAL & 2761 N,61.22263,-149.829796,http://bustracker.muni.org/InfoPoint/departures.aspx?stopid=2293,2293
1347,1347,COMMERCIAL & CHIPPERFIELD ENE,61.220395,-149.833684,http://bustracker.muni.org/InfoPoint/departures.aspx?stopid=2295,2295
1348,1348,3RD AVENUE & UNGA WNW,61.219596,-149.842172,http://bustracker.muni.org/InfoPoint/departures.aspx?stopid=2296,2296
1349,1349,3RD AVENUE & CONCRETE ENE,61.219422,-149.850305,http://bustracker.muni.org/InfoPoint/departures.aspx?stopid=2297,2297
1350,1350,3RD AVENUE & ORCA WNW,61.219542,-149.855362,http://bustracker.muni.org/InfoPoint/departures.aspx?stopid=2298,2298
1351,1351,3RD AVENUE & POST ROAD WNW,61.21961,-149.860538,http://bustracker.muni.org/InfoPoint/departures.aspx?stopid=2299,2299
1353,1353,3RD AVENUE & GAMBELL WNW,61.219607,-149.871594,http://bustracker.muni.org/InfoPoint/departures.aspx?stopid=2301,2301
1354,1354,3RD AVENUE & EAGLE WNW,61.219604,-149.875516,http://bustracker.muni.org/InfoPoint/departures.aspx?stopid=2302,2302
1355,1355,3RD AVENUE & CORDOVA ENE,61.219599,-149.87897,http://bustracker.muni.org/InfoPoint/departures.aspx?stopid=2303,2303
1356,1356,3RD AVENUE & BARROW WNW,61.219607,-149.881998,http://bustracker.muni.org/InfoPoint/departures.aspx?stopid=2304,2304
1357,1357,C STREET & 5TH AVENUE NNW,61.2181,-149.887507,http://bustracker.muni.org/InfoPoint/departures.aspx?stopid=2305,2305
1359,1359,5TH AVENUE & H STREET WNW,61.217639,-149.898591,http://bustracker.muni.org/InfoPoint/departures.aspx?stopid=2306,2306
1361,1361,6TH AVENUE & K STREET ESE,61.216499,-149.900784,http://bustracker.muni.org/InfoPoint/departures.aspx?stopid=2307,2307
1380,1380,BUSINESS BLVD & VALLEY RVR EAST,61.326295,-149.574598,http://bustracker.muni.org/InfoPoint/departures.aspx?stopid=2309,2309
1422,1422,BUSINESS BLVD & CENTERFIELD ESE,61.323499,-149.573891,http://bustracker.muni.org/InfoPoint/departures.aspx?stopid=2319,2319
1424,1424,BUSINESS BLVD & VALLEY RVR WEST,61.326396,-149.574745,http://bustracker.muni.org/InfoPoint/departures.aspx?stopid=2320,2320
1433,1433,5TH AVENUE & REEVE BLVD WNW,61.217658,-149.838728,http://bustracker.muni.org/InfoPoint/departures.aspx?stopid=2321,2321
1453,1453,CORDOVA & 8TH AVENUE SSW,61.214379,-149.879314,http://bustracker.muni.org/InfoPoint/departures.aspx?stopid=2323,2323
1556,1556,OLD SEWARD & KLATT NNE,61.116379,-149.863561,http://bustracker.muni.org/InfoPoint/departures.aspx?stopid=2325,2325
1557,1557,OLD SEWARD & O'MALLEY CTR NNE,61.120333,-149.863556,http://bustracker.muni.org/InfoPoint/departures.aspx?stopid=2326,2326
1564,1564,88TH AVENUE & OLD SEWARD WNW,61.141181,-149.866872,http://bustracker.muni.org/InfoPoint/departures.aspx?stopid=2329,2329
1574,1574,OLD SEWARD & O'MALLEY CTR NNW,61.120324,-149.864117,http://bustracker.muni.org/InfoPoint/departures.aspx?stopid=2330,2330
1575,1575,OLD SEWARD & KLATT NNW,61.11654,-149.864136,http://bustracker.muni.org/InfoPoint/departures.aspx?stopid=2331,2331
1579,1579,INDUSTRY WAY & HUFFMAN NNW,61.10902,-149.861393,http://bustracker.muni.org/InfoPoint/departures.aspx?stopid=2332,2332
1635,1635,ABBOTT & INDEPENDENCE ESE,61.137377,-149.840321,http://bustracker.muni.org/InfoPoint/departures.aspx?stopid=2334,2334
1690,1690,C STREET & 32ND AVENUE SSW,61.191068,-149.88675,http://bustracker.muni.org/InfoPoint/departures.aspx?stopid=2335,2335
1745,1745,5TH AVENUE & CONCRETE ESE,61.217317,-149.849238,http://bustracker.muni.org/InfoPoint/departures.aspx?stopid=2337,2337
1747,1747,5TH AVENUE & AIRPORT HGTS ESE,61.2174,-149.824029,http://bustracker.muni.org/InfoPoint/departures.aspx?stopid=2338,2338
1766,1766,BUSINESS BLVD & CENTERFIELD ENE,61.323715,-149.574368,http://bustracker.muni.org/InfoPoint/departures.aspx?stopid=2345,2345
1878,1878,MULDOON & BOUNDARY SSW,61.223411,-149.733845,http://bustracker.muni.org/InfoPoint/departures.aspx?stopid=2403,2403
1917,1917,C STREET & 34TH AVENUE SSW,61.189372,-149.886758,http://bustracker.muni.org/InfoPoint/departures.aspx?stopid=2406,2406
1918,1918,C STREET & 36TH AVENUE SSW,61.187298,-149.88678,http://bustracker.muni.org/InfoPoint/departures.aspx?stopid=2407,2407
1919,1919,C STREET & 40TH AVENUE SSW,61.183706,-149.886757,http://bustracker.muni.org/InfoPoint/departures.aspx?stopid=2408,2408
1920,1920,TUDOR & C STREET ESE,61.180571,-149.885032,http://bustracker.muni.org/InfoPoint/departures.aspx?stopid=2409,2409
1921,1921,TUDOR & CORDOVA ESE,61.180655,-149.877511,http://bustracker.muni.org/InfoPoint/departures.aspx?stopid=2410,2410
1922,1922,TUDOR & FAIRBANKS WSW,61.180638,-149.873753,http://bustracker.muni.org/InfoPoint/departures.aspx?stopid=2411,2411
1923,1923,TUDOR & OLD SEWARD ESE,61.180638,-149.866479,http://bustracker.muni.org/InfoPoint/departures.aspx?stopid=2412,2412
1924,1924,TUDOR & SHELIKOF WSW,61.1807,-149.854151,http://bustracker.muni.org/InfoPoint/departures.aspx?stopid=2413,2413
1925,1925,TUDOR & MACINNES ESE,61.180711,-149.848479,http://bustracker.muni.org/InfoPoint/departures.aspx?stopid=2414,2414
1926,1926,TUDOR & LAKE OTIS ESE,61.180708,-149.835259,http://bustracker.muni.org/InfoPoint/departures.aspx?stopid=2415,2415
1928,1928,TUDOR & PIPER WSW,61.180725,-149.824316,http://bustracker.muni.org/InfoPoint/departures.aspx?stopid=2416,2416
1929,1929,TUDOR & VIEW ESE,61.18072,-149.817488,http://bustracker.muni.org/InfoPoint/departures.aspx?stopid=2417,2417
1933,1933,TUDOR & TUDOR CENTRE ESE,61.180602,-149.794075,http://bustracker.muni.org/InfoPoint/departures.aspx?stopid=2419,2419
1935,1935,TUDOR & CHECKMATE ESE,61.180639,-149.785138,http://bustracker.muni.org/InfoPoint/departures.aspx?stopid=2420,2420
1936,1936,TUDOR & BONIFACE ESE,61.180601,-149.776901,http://bustracker.muni.org/InfoPoint/departures.aspx?stopid=2421,2421
1937,1937,TUDOR & DEFIANCE ESE,61.180641,-149.769162,http://bustracker.muni.org/InfoPoint/departures.aspx?stopid=2422,2422
1938,1938,TUDOR & BAXTER ESE,61.180655,-149.761633,http://bustracker.muni.org/InfoPoint/departures.aspx?stopid=2423,2423
1939,1939,PATTERSON & AMBLER LANE NNE,61.181995,-149.748246,http://bustracker.muni.org/InfoPoint/departures.aspx?stopid=2424,2424
1940,1940,PATTERSON & MADELYNNE NNE,61.184526,-149.74834,http://bustracker.muni.org/InfoPoint/departures.aspx?stopid=2425,2425
1941,1941,PATTERSON & 36TH AVENUE SSE,61.187704,-149.748177,http://bustracker.muni.org/InfoPoint/departures.aspx?stopid=2426,2426
1942,1942,36TH AVENUE & UPLAND DRIVE ESE,61.187939,-149.74232,http://bustracker.muni.org/InfoPoint/departures.aspx?stopid=2427,2427
1943,1943,36TH AVENUE & ROBIN ESE,61.187945,-149.738492,http://bustracker.muni.org/InfoPoint/departures.aspx?stopid=2428,2428
1944,1944,MULDOON & NORTHWIND NNE,61.190502,-149.733222,http://bustracker.muni.org/InfoPoint/departures.aspx?stopid=2429,2429
1946,1946,MULDOON & 32ND AVENUE NNE,61.193142,-149.733264,http://bustracker.muni.org/InfoPoint/departures.aspx?stopid=2430,2430
1948,1948,MULDOON & HALLIGAN NNE,61.201072,-149.733253,http://bustracker.muni.org/InfoPoint/departures.aspx?stopid=2431,2431
1949,1949,MULDOON & 20TH AVENUE NNE,61.202959,-149.733292,http://bustracker.muni.org/InfoPoint/departures.aspx?stopid=2432,2432
1950,1950,MULDOON & 16TH AVENUE NNE,61.207688,-149.733186,http://bustracker.muni.org/InfoPoint/departures.aspx?stopid=2433,2433
1952,1952,MULDOON & OLD HARBOR SSE,61.213639,-149.733279,http://bustracker.muni.org/InfoPoint/departures.aspx?stopid=2435,2435
1953,1953,MULDOON & 6TH AVENUE NNE,61.217407,-149.73326,http://bustracker.muni.org/InfoPoint/departures.aspx?stopid=2436,2436
1954,1954,MULDOON & 4TH AVENUE NNE,61.219369,-149.73326,http://bustracker.muni.org/InfoPoint/departures.aspx?stopid=2437,2437
1955,1955,MULDOON & DUBEN NNE,61.221163,-149.733263,http://bustracker.muni.org/InfoPoint/departures.aspx?stopid=2438,2438
1956,1956,MULDOON & BOUNDARY SSE,61.223725,-149.733252,http://bustracker.muni.org/InfoPoint/departures.aspx?stopid=2439,2439
1993,1993,MULDOON & 6TH AVENUE SSW,61.216635,-149.733749,http://bustracker.muni.org/InfoPoint/departures.aspx?stopid=2440,2440
1994,1994,MULDOON & OLD HARBOR SSW,61.213771,-149.733721,http://bustracker.muni.org/InfoPoint/departures.aspx?stopid=2441,2441
1997,1997,MULDOON & ISLAND NNW,61.205948,-149.733703,http://bustracker.muni.org/InfoPoint/departures.aspx?stopid=2443,2443
1998,1998,MULDOON & 20TH AVENUE SSW,61.202157,-149.733737,http://bustracker.muni.org/InfoPoint/departures.aspx?stopid=2444,2444
1999,1999,MULDOON & WILDBROOK CT SSW,61.199704,-149.733831,http://bustracker.muni.org/InfoPoint/departures.aspx?stopid=2445,2445
2000,2000,MULDOON & NORTHERN LIGHTS NNW,61.196536,-149.733802,http://bustracker.muni.org/InfoPoint/departures.aspx?stopid=2446,2446
2001,2001,MULDOON & NORTHERN LIGHTS SSW,61.194496,-149.733743,http://bustracker.muni.org/InfoPoint/departures.aspx?stopid=2447,2447
2002,2002,MULDOON & 32ND AVENUE SSW,61.191092,-149.733722,http://bustracker.muni.org/InfoPoint/departures.aspx?stopid=2448,2448
2003,2003,36TH AVENUE & OLD MULDOON ENE,61.188137,-149.734488,http://bustracker.muni.org/InfoPoint/departures.aspx?stopid=2449,2449
2004,2004,36TH AVENUE & ROBIN WNW,61.188134,-149.739465,http://bustracker.muni.org/InfoPoint/departures.aspx?stopid=2450,2450
2005,2005,36TH AVENUE & HILAND WNW,61.188101,-149.74509,http://bustracker.muni.org/InfoPoint/departures.aspx?stopid=2451,2451
2006,2006,PATTERSON & 36TH AVENUE SSW,61.187726,-149.748546,http://bustracker.muni.org/InfoPoint/departures.aspx?stopid=2452,2452
2007,2007,PATTERSON & MADELYNNE NNW,61.184077,-149.748557,http://bustracker.muni.org/InfoPoint/departures.aspx?stopid=2453,2453
2008,2008,PATTERSON & AMBLER LANE SSW,61.181342,-149.74863,http://bustracker.muni.org/InfoPoint/departures.aspx?stopid=2454,2454
2009,2009,TUDOR & KINGSTON ENE,61.180895,-149.757279,http://bustracker.muni.org/InfoPoint/departures.aspx?stopid=2455,2455
2011,2011,TUDOR & DEFIANCE WNW,61.180901,-149.772321,http://bustracker.muni.org/InfoPoint/departures.aspx?stopid=2456,2456
2012,2012,TUDOR & BONIFACE WNW,61.180928,-149.780732,http://bustracker.muni.org/InfoPoint/departures.aspx?stopid=2457,2457
2014,2014,TUDOR & CHECKMATE WNW,61.180911,-149.787295,http://bustracker.muni.org/InfoPoint/departures.aspx?stopid=2458,2458
2017,2017,TUDOR & ELMORE WNW,61.180972,-149.809612,http://bustracker.muni.org/InfoPoint/departures.aspx?stopid=2460,2460
2018,2018,TUDOR & FLORINA WNW,61.180915,-149.814464,http://bustracker.muni.org/InfoPoint/departures.aspx?stopid=2461,2461
2019,2019,TUDOR & DALE WNW,61.180923,-149.819593,http://bustracker.muni.org/InfoPoint/departures.aspx?stopid=2462,2462
2020,2020,TUDOR & WRIGHT ENE,61.180933,-149.825768,http://bustracker.muni.org/InfoPoint/departures.aspx?stopid=2463,2463
2021,2021,TUDOR & FOLKER WNW,61.180961,-149.831344,http://bustracker.muni.org/InfoPoint/departures.aspx?stopid=2464,2464
2022,2022,TUDOR & LAUREL WNW,61.180995,-149.835398,http://bustracker.muni.org/InfoPoint/departures.aspx?stopid=2465,2465
2023,2023,TUDOR & LAKE OTIS WNW,61.180997,-149.840026,http://bustracker.muni.org/InfoPoint/departures.aspx?stopid=2466,2466
2024,2024,TUDOR & UNIVERSITY PL APT ENE,61.180973,-149.845419,http://bustracker.muni.org/InfoPoint/departures.aspx?stopid=2467,2467
2025,2025,TUDOR & MACINNES WNW,61.180943,-149.850799,http://bustracker.muni.org/InfoPoint/departures.aspx?stopid=2468,2468
2026,2026,TUDOR & EAU CLAIRE ENE,61.180951,-149.854521,http://bustracker.muni.org/InfoPoint/departures.aspx?stopid=2469,2469
2027,2027,TUDOR & NEW SEWARD WNW,61.180919,-149.865125,http://bustracker.muni.org/InfoPoint/departures.aspx?stopid=2470,2470
2028,2028,TUDOR & OLD SEWARD WNW,61.180905,-149.869338,http://bustracker.muni.org/InfoPoint/departures.aspx?stopid=2471,2471
2029,2029,TUDOR & DENALI WNW,61.180901,-149.878011,http://bustracker.muni.org/InfoPoint/departures.aspx?stopid=2472,2472
2031,2031,TUDOR & B STREET ENE,61.180946,-149.882813,http://bustracker.muni.org/InfoPoint/departures.aspx?stopid=2473,2473
2032,2032,C STREET & TUDOR NNE,61.181596,-149.886041,http://bustracker.muni.org/InfoPoint/departures.aspx?stopid=2474,2474
2033,2033,A STREET & 40TH AVENUE NNE,61.184988,-149.885655,http://bustracker.muni.org/InfoPoint/departures.aspx?stopid=2475,2475
2034,2034,A STREET & 38TH AVENUE NNE,61.186637,-149.883821,http://bustracker.muni.org/InfoPoint/departures.aspx?stopid=2476,2476
2036,2036,A STREET & 34TH AVENUE NNE,61.190573,-149.882915,http://bustracker.muni.org/InfoPoint/departures.aspx?stopid=2477,2477
2103,2103,ABBOTT & 88TH AVENUE SSW,61.140884,-149.847794,http://bustracker.muni.org/InfoPoint/departures.aspx?stopid=2481,2481
2180,2180,ABBOTT & TOLOFF WNW,61.137639,-149.842198,http://bustracker.muni.org/InfoPoint/departures.aspx?stopid=2483,2483
2182,2182,ABBOTT & 88TH AVENUE NNE,61.14172,-149.847276,http://bustracker.muni.org/InfoPoint/departures.aspx?stopid=2485,2485
3006,3006,AMBASSADOR & ELMORE ESE,61.183223,-149.807165,http://bustracker.muni.org/InfoPoint/departures.aspx?stopid=2489,2489
3007,3007,AMBASSADOR & ELMORE ENE,61.183325,-149.807528,http://bustracker.muni.org/InfoPoint/departures.aspx?stopid=2490,2490
3008,3008,AMBASSADOR & TUDOR CTR WSW,61.183298,-149.802729,http://bustracker.muni.org/InfoPoint/departures.aspx?stopid=2491,2491
3009,3009,AMBASSADOR & TUDOR CTR WNW,61.183514,-149.803185,http://bustracker.muni.org/InfoPoint/departures.aspx?stopid=2492,2492
3010,3010,DIPLOMACY & ANMC N,61.181944,-149.801485,http://bustracker.muni.org/InfoPoint/departures.aspx?stopid=2493,2493
3013,3013,ELMORE & SHARON GAGNON SSE,61.184874,-149.80846,http://bustracker.muni.org/InfoPoint/departures.aspx?stopid=2495,2495
3014,3014,CENTENNIAL & PECK NNE,61.222857,-149.717297,http://bustracker.muni.org/InfoPoint/departures.aspx?stopid=2496,2496
3018,3018,3RD AVENUE & REEVE WNW,61.219629,-149.837466,http://bustracker.muni.org/InfoPoint/departures.aspx?stopid=2497,2497
3033,3033,INTL ARPT RD & RR XING WSW,61.174779,-149.953271,http://bustracker.muni.org/InfoPoint/departures.aspx?stopid=2501,2501
3034,3034,AIRPORT NORTH TERMINAL,61.178058,-149.984168,http://bustracker.muni.org/InfoPoint/departures.aspx?stopid=2502,2502
3038,3038,MULDOON & 36TH AVENUE NNE,61.18862,-149.733025,http://bustracker.muni.org/InfoPoint/departures.aspx?stopid=2505,2505
3044,3044,OLD GLENN & EAGLE RIVER ROAD ENE,61.320307,-149.571354,http://bustracker.muni.org/InfoPoint/departures.aspx?stopid=2506,2506
3075,3075,TUDOR CENTRE & ANMC XWALK ESE,61.183555,-149.798885,http://bustracker.muni.org/InfoPoint/departures.aspx?stopid=2512,2512
3077,3077,TUDOR CENTRE & KIDNEY CTR SSW,61.182429,-149.795203,http://bustracker.muni.org/InfoPoint/departures.aspx?stopid=2513,2513
3507,3507,5TH AVENUE & F STREET WNW,61.217604,-149.893845,http://bustracker.muni.org/InfoPoint/departures.aspx?stopid=2522,2522
3511,3511,INTL ARPT RD & AIRCRAFT ESE,61.176544,-149.966894,http://bustracker.muni.org/InfoPoint/departures.aspx?stopid=2523,2523
3519,3519,POSTMARK & HELIPORT PL ENE,61.177805,-149.977945,http://bustracker.muni.org/InfoPoint/departures.aspx?stopid=2527,2527
3525,3525,9TH AVENUE & L STREET ENE,61.213718,-149.902235,http://bustracker.muni.org/InfoPoint/departures.aspx?stopid=2528,2528
3526,3526,9TH AVENUE & H STREET WNW,61.213708,-149.898559,http://bustracker.muni.org/InfoPoint/departures.aspx?stopid=2529,2529
3527,3527,9TH AVENUE & F STREET WNW,61.213682,-149.894411,http://bustracker.muni.org/InfoPoint/departures.aspx?stopid=2530,2530
3529,3529,DIPLOMACY & TUDOR CTR WNW,61.181964,-149.796151,http://bustracker.muni.org/InfoPoint/departures.aspx?stopid=2532,2532
3545,3545,ARLENE & 88TH AVENUE SSW,61.140621,-149.929584,http://bustracker.muni.org/InfoPoint/departures.aspx?stopid=2546,2546
3547,3547,JEWEL LAKE & CHEVIGNY WSW,61.16638,-149.946238,http://bustracker.muni.org/InfoPoint/departures.aspx?stopid=2548,2548
3548,3548,JEWEL LAKE & CHEVIGNY ENE,61.166636,-149.946604,http://bustracker.muni.org/InfoPoint/departures.aspx?stopid=2549,2549
3552,3552,9TH AVENUE & BARROW ENE,61.213675,-149.880981,http://bustracker.muni.org/InfoPoint/departures.aspx?stopid=2553,2553
3553,3553,9TH AVENUE & B STREET WNW,61.213707,-149.88613,http://bustracker.muni.org/InfoPoint/departures.aspx?stopid=2554,2554
3554,3554,15TH AVENUE & GAMBELL ENE,61.20778,-149.870506,http://bustracker.muni.org/InfoPoint/departures.aspx?stopid=2555,2555
3555,3555,15TH AVENUE & EAGLE WNW,61.207746,-149.876486,http://bustracker.muni.org/InfoPoint/departures.aspx?stopid=2556,2556
3556,3556,15TH AVENUE & EAGLE ESE,61.207657,-149.874438,http://bustracker.muni.org/InfoPoint/departures.aspx?stopid=2557,2557
3557,3557,CORDOVA & 14TH AVENUE SSE,61.208604,-149.879086,http://bustracker.muni.org/InfoPoint/departures.aspx?stopid=2558,2558
3558,3558,CORDOVA & 14TH AVENUE SSW,61.208183,-149.879343,http://bustracker.muni.org/InfoPoint/departures.aspx?stopid=2559,2559
3559,3559,BOUNDARY & MULDOON ENE,61.224231,-149.730932,http://bustracker.muni.org/InfoPoint/departures.aspx?stopid=2560,2560
3566,3566,HYDER & 11TH AVENUE NNE,61.211958,-149.868897,http://bustracker.muni.org/InfoPoint/departures.aspx?stopid=2567,2567
3567,3567,HYDER & 11TH AVENUE SSW,61.211416,-149.869123,http://bustracker.muni.org/InfoPoint/departures.aspx?stopid=2568,2568
3568,3568,HYDER & 9TH AVENUE SSE,61.213479,-149.868807,http://bustracker.muni.org/InfoPoint/departures.aspx?stopid=2569,2569
3589,3589,ARCTIC & 67TH AVENUE NNW,61.160805,-149.892212,http://bustracker.muni.org/InfoPoint/departures.aspx?stopid=2590,2590
3592,3592,SPENARD & FIREWEED NNE,61.199487,-149.905757,http://bustracker.muni.org/InfoPoint/departures.aspx?stopid=2592,2592
3593,3593,BRAGAW & DEBARR SSW,61.20868,-149.808539,http://bustracker.muni.org/InfoPoint/departures.aspx?stopid=2593,2593
3630,3630,88TH AVENUE & BLACKBERRY ENE,61.141173,-149.944198,http://bustracker.muni.org/InfoPoint/departures.aspx?stopid=2616,2616
3682,3682,PECK & MULDOON ESE,61.222331,-149.731982,http://bustracker.muni.org/InfoPoint/departures.aspx?stopid=2640,2640
3686,3686,JEWEL LAKE & RASPBERRY NNE,61.159664,-149.951425,http://bustracker.muni.org/InfoPoint/departures.aspx?stopid=2643,2643
3687,3687,88TH AVENUE & CORDELL ESE,61.141009,-149.943057,http://bustracker.muni.org/InfoPoint/departures.aspx?stopid=2644,2644
2185,2185,BOUNDARY & NEWELL ESE,61.224125,-149.770654,http://bustracker.muni.org/InfoPoint/departures.aspx?stopid=2659,2659
2195,2195,19TH AVENUE & CHUGACH MANOR,61.203459,-149.858078,http://bustracker.muni.org/InfoPoint/departures.aspx?stopid=2665,2665
2202,2202,NORTHERN LIGHTS & COPE WNW,61.195373,-149.902734,http://bustracker.muni.org/InfoPoint/departures.aspx?stopid=2666,2666
3688,3688,3RD AVENUE & SITKA ESE,61.219451,-149.844865,http://bustracker.muni.org/InfoPoint/departures.aspx?stopid=2668,2668
3689,3689,3RD AVENUE & SITKA WNW,61.219566,-149.846229,http://bustracker.muni.org/InfoPoint/departures.aspx?stopid=2669,2669
3696,3696,INTL ARPT RD & RUTAN WNW,61.176805,-149.960738,http://bustracker.muni.org/InfoPoint/departures.aspx?stopid=2671,2671
2203,2203,ARCTIC & DIMOND NNW,61.146527,-149.892342,http://bustracker.muni.org/InfoPoint/departures.aspx?stopid=2756,2756
2204,2204,ARCTIC & 36TH AVENUE NNE,61.188399,-149.897742,http://bustracker.muni.org/InfoPoint/departures.aspx?stopid=2757,2757
1450,1450,CITY HALL,61.216565,-149.894746,http://bustracker.muni.org/InfoPoint/departures.aspx?stopid=2758,2758
0355,0355,DEBARR & MULDOON,61.209843,-149.73524,http://bustracker.muni.org/InfoPoint/departures.aspx?stopid=2759,2759
3594,3594,BONIFACE INTERCHANGE,61.225275,-149.779402,http://bustracker.muni.org/InfoPoint/departures.aspx?stopid=2761,2761
1746,1746,5TH AVENUE & REEVE BLVD WSW,61.21739,-149.837435,http://bustracker.muni.org/InfoPoint/departures.aspx?stopid=2766,2766
1333,1333,LANE & MOUNTAIN VIEW NNE,61.22668,-149.797055,http://bustracker.muni.org/InfoPoint/departures.aspx?stopid=2769,2769
2205,2205,MULDOON & HERITAGE CTR WNW,61.231092,-149.738035,http://bustracker.muni.org/InfoPoint/departures.aspx?stopid=2772,2772
2207,2207,MULDOON & ZUCKERT ESE,61.230879,-149.740091,http://bustracker.muni.org/InfoPoint/departures.aspx?stopid=2773,2773
0782,0782,BOUNDARY & TURPIN WSW,61.222814,-149.756569,http://bustracker.muni.org/InfoPoint/departures.aspx?stopid=2778,2778
3699,3699,CREEKSIDE CTR & CLEARWATER ESE,61.206955,-149.737297,http://bustracker.muni.org/InfoPoint/departures.aspx?stopid=2780,2780
2209,2209,VA CLINIC,61.232413,-149.743568,http://bustracker.muni.org/InfoPoint/departures.aspx?stopid=2784,2784
0575,0575,PROVIDENCE & PROVIDENCE HOSPITAL,61.18976,-149.816965,http://bustracker.muni.org/InfoPoint/departures.aspx?stopid=2789,2789
3700,3700,PINE & KLONDIKE NNW,61.219751,-149.793561,http://bustracker.muni.org/InfoPoint/departures.aspx?stopid=2794,2794
1310,1310,PROVIDENCE & SPIRIT WSW,61.188342,-149.824712,http://bustracker.muni.org/InfoPoint/departures.aspx?stopid=2798,2798
3711,3711,MULDOON & ZUCKERT WNW,61.231258,-149.741889,http://bustracker.muni.org/InfoPoint/departures.aspx?stopid=2800,2800
3710,3710,DEBARR & CREEKSIDE CTR WNW,61.209907,-149.743743,http://bustracker.muni.org/InfoPoint/departures.aspx?stopid=2801,2801
3717,3717,MOUNTAIN VIEW & COMMERCIAL SSW,61.223497,-149.816435,http://bustracker.muni.org/InfoPoint/departures.aspx?stopid=2816,2816
3718,3718,MOUNTAIN VIEW & GLENN SQR NNW,61.220614,-149.82254,http://bustracker.muni.org/InfoPoint/departures.aspx?stopid=2817,2817
3719,3719,MOUNTAIN VIEW & GLENN SQR ENE,61.220654,-149.82192,http://bustracker.muni.org/InfoPoint/departures.aspx?stopid=2818,2818
7022,7022,DEBARR RD 7 COLUMBINE ESE,61.209651,-149.817342,http://bustracker.muni.org/InfoPoint/departures.aspx?stopid=2845,2845
7021,7021,DEBARR RD & COLUMBINE WNW,61.209865,-149.818656,http://bustracker.muni.org/InfoPoint/departures.aspx?stopid=2846,2846
7020,7020,TUDOR CENTRE DR & DIPLOMACY SSE,61.181723,-149.795173,http://bustracker.muni.org/InfoPoint/departures.aspx?stopid=2847,2847
7019,7019,TUDOR CENTRE DR & ANMC XWALK WNW,61.183721,-149.800099,http://bustracker.muni.org/InfoPoint/departures.aspx?stopid=2848,2848
7018,7018,ELMORE RD & TUDOR RD NNE,61.181416,-149.807909,http://bustracker.muni.org/InfoPoint/departures.aspx?stopid=2849,2849
7017,7017,BRAGAW ST & 7TH AVE NNE,61.21625,-149.808182,http://bustracker.muni.org/InfoPoint/departures.aspx?stopid=2850,2850
7016,7016,BRAGAW ST & 3RD AVE SSW,61.219911,-149.808452,http://bustracker.muni.org/InfoPoint/departures.aspx?stopid=2851,2851
7015,7015,BRAGAW ST & 4TH AVE NNE,61.219074,-149.808235,http://bustracker.muni.org/InfoPoint/departures.aspx?stopid=2852,2852
7013,7013,MOUNTAIN VIEW DR & BRAGAW ST WSW,61.224046,-149.809478,http://bustracker.muni.org/InfoPoint/departures.aspx?stopid=2828,2828
1479,1479,MOUNTAIN VIEW DR & HOYT ST,61.224297,-149.800623,http://bustracker.muni.org/InfoPoint/departures.aspx?stopid=2768,2768
1478,1478,MOUNTAIN VIEW DR & FLOWER ESE,61.224107,-149.805813,http://bustracker.muni.org/InfoPoint/departures.aspx?stopid=2767,2767
3723,3723,ARCTIC & 42ND AVE SSW,61.18275,-149.898166,http://bustracker.muni.org/InfoPoint/departures.aspx?stopid=2870,2870
7024,7024,4TH AVE & BONIFACE ESE,61.218637,-149.777735,http://bustracker.muni.org/InfoPoint/departures.aspx?stopid=2871,2871
7025,7025,6TH AVE & EDWARD ESE,61.216474,-149.762384,http://bustracker.muni.org/InfoPoint/departures.aspx?stopid=2872,2872
7026,7026,6TH AVE & EDWARD ENE,61.216571,-149.762946,http://bustracker.muni.org/InfoPoint/departures.aspx?stopid=2873,2873
7027,7027,4TH AVE & BONIFACE ENE,61.21873,-149.77786,http://bustracker.muni.org/InfoPoint/departures.aspx?stopid=2874,2874
3023,3023,AIRPORT SOUTH TERMINAL STOP 1,61.174429,-149.98131,http://bustracker.muni.org/InfoPoint/departures.aspx?stopid=2875,2875
