{
  "type": "FeatureCollection",
  "features": [
    {
      "type": "Feature",
      "properties": {
        "name": "6TH AVENUE & C STREET ESE",
        "stop_id": "0002",
        "stop_code": null
      },
      "geometry": {
        "type": "Point",
        "coordinates": [
          -149.886091,
          61.216517
        ]
      }
    },
    {
      "type": "Feature",
      "properties": {
        "name": "C STREET & 7TH AVENUE SSW",
        "stop_id": "0003",
        "stop_code": null
      },
      "geometry": {
        "type": "Point",
        "coordinates": [
          -149.887389,
          61.215111
        ]
      }
    },
    {
      "type": "Feature",
      "properties": {
        "name": "C STREET & 10TH AVENUE SSW",
        "stop_id": "0004",
        "stop_code": null
      },
      "geometry": {
        "type": "Point",
        "coordinates": [
          -149.887517,
          61.212406
        ]
      }
    },
    {
      "type": "Feature",
      "properties": {
        "name": "C STREET & 12TH AVENUE SSW",
        "stop_id": "0005",
        "stop_code": null
      },
      "geometry": {
        "type": "Point",
        "coordinates": [
          -149.887483,
          61.210296
        ]
      }
    },
    {
      "type": "Feature",
      "properties": {
        "name": "C STREET & 14TH AVENUE NNW",
        "stop_id": "0006",
        "stop_code": null
      },
      "geometry": {
        "type": "Point",
        "coordinates": [
          -149.887493,
          61.208679
        ]
      }
    },
    {
      "type": "Feature",
      "properties": {
        "name": "C STREET & 16TH AVENUE SSW",
        "stop_id": "0007",
        "stop_code": null
      },
      "geometry": {
        "type": "Point",
        "coordinates": [
          -149.887535,
          61.205769
        ]
      }
    },
    {
      "type": "Feature",
      "properties": {
        "name": "C STREET & 19TH AVENUE NNW",
        "stop_id": "0008",
        "stop_code": null
      },
      "geometry": {
        "type": "Point",
        "coordinates": [
          -149.887627,
          61.203688
        ]
      }
    },
    {
      "type": "Feature",
      "properties": {
        "name": "C STREET & 22ND AVENUE NNW",
        "stop_id": "0009",
        "stop_code": null
      },
      "geometry": {
        "type": "Point",
        "coordinates": [
          -149.887529,
          61.200839
        ]
      }
    },
    {
      "type": "Feature",
      "properties": {
        "name": "C STREET & FIREWEED SSW",
        "stop_id": "0010",
        "stop_code": null
      },
      "geometry": {
        "type": "Point",
        "coordinates": [
          -149.88703,
          61.197746
        ]
      }
    },
    {
      "type": "Feature",
      "properties": {
        "name": "C STREET & BENSON NNW",
        "stop_id": "0011",
        "stop_code": null
      },
      "geometry": {
        "type": "Point",
        "coordinates": [
          -149.886782,
          61.194451
        ]
      }
    },
    {
      "type": "Feature",
      "properties": {
        "name": "C STREET & 31ST AVENUE NNW",
        "stop_id": "0012",
        "stop_code": null
      },
      "geometry": {
        "type": "Point",
        "coordinates": [
          -149.886782,
          61.192709
        ]
      }
    },
    {
      "type": "Feature",
      "properties": {
        "name": "C STREET & 36TH AVE",
        "stop_id": "0014",
        "stop_code": null
      },
      "geometry": {
        "type": "Point",
        "coordinates": [
          -149.885213,
          61.187996
        ]
      }
    },
    {
      "type": "Feature",
      "properties": {
        "name": "36TH AVE & A STREET",
        "stop_id": "0015",
        "stop_code": null
      },
      "geometry": {
        "type": "Point",
        "coordinates": [
          -149.88181,
          61.187958
        ]
      }
    },
    {
      "type": "Feature",
      "properties": {
        "name": "36TH AVENUE & DENALI WSW",
        "stop_id": "0016",
        "stop_code": null
      },
      "geometry": {
        "type": "Point",
        "coordinates": [
          -149.877381,
          61.187984
        ]
      }
    },
    {
      "type": "Feature",
      "properties": {
        "name": "36TH AVENUE & OLD SEWARD WSW",
        "stop_id": "0017",
        "stop_code": null
      },
      "geometry": {
        "type": "Point",
        "coordinates": [
          -149.869001,
          61.187998
        ]
      }
    },
    {
      "type": "Feature",
      "properties": {
        "name": "36TH AVENUE & NEW SEWARD ESE",
        "stop_id": "0018",
        "stop_code": null
      },
      "geometry": {
        "type": "Point",
        "coordinates": [
          -149.862833,
          61.187973
        ]
      }
    },
    {
      "type": "Feature",
      "properties": {
        "name": "36TH AVENUE & LATOUCHE WSW",
        "stop_id": "0019",
        "stop_code": null
      },
      "geometry": {
        "type": "Point",
        "coordinates": [
          -149.859445,
          61.187991
        ]
      }
    },
    {
      "type": "Feature",
      "properties": {
        "name": "36TH AVENUE & LOCARNO ESE",
        "stop_id": "0020",
        "stop_code": null
      },
      "geometry": {
        "type": "Point",
        "coordinates": [
          -149.855386,
          61.188013
        ]
      }
    },
    {
      "type": "Feature",
      "properties": {
        "name": "36TH AVENUE & MACINNES ESE",
        "stop_id": "0021",
        "stop_code": null
      },
      "geometry": {
        "type": "Point",
        "coordinates": [
          -149.848835,
          61.18795
        ]
      }
    },
    {
      "type": "Feature",
      "properties": {
        "name": "LAKE OTIS & 36TH AVENUE SSW",
        "stop_id": "0023",
        "stop_code": null
      },
      "geometry": {
        "type": "Point",
        "coordinates": [
          -149.83846,
          61.187323
        ]
      }
    },
    {
      "type": "Feature",
      "properties": {
        "name": "LAKE OTIS & 38TH AVENUE SSW",
        "stop_id": "0024",
        "stop_code": null
      },
      "geometry": {
        "type": "Point",
        "coordinates": [
          -149.83838,
          61.185757
        ]
      }
    },
    {
      "type": "Feature",
      "properties": {
        "name": "LAKE OTIS & 42ND AVENUE NNW",
        "stop_id": "0025",
        "stop_code": null
      },
      "geometry": {
        "type": "Point",
        "coordinates": [
          -149.838371,
          61.182748
        ]
      }
    },
    {
      "type": "Feature",
      "properties": {
        "name": "LAKE OTIS & TUDOR",
        "stop_id": "0026",
        "stop_code": null
      },
      "geometry": {
        "type": "Point",
        "coordinates": [
          -149.838406,
          61.179662
        ]
      }
    },
    {
      "type": "Feature",
      "properties": {
        "name": "LAKE OTIS & HOMESTEAD SSW",
        "stop_id": "0027",
        "stop_code": null
      },
      "geometry": {
        "type": "Point",
        "coordinates": [
          -149.838304,
          61.177118
        ]
      }
    },
    {
      "type": "Feature",
      "properties": {
        "name": "LAKE OTIS & WALDRON SSW",
        "stop_id": "0028",
        "stop_code": null
      },
      "geometry": {
        "type": "Point",
        "coordinates": [
          -149.838436,
          61.174351
        ]
      }
    },
    {
      "type": "Feature",
      "properties": {
        "name": "LAKE OTIS & 54TH AVENUE SSW",
        "stop_id": "0029",
        "stop_code": null
      },
      "geometry": {
        "type": "Point",
        "coordinates": [
          -149.838336,
          61.171576
        ]
      }
    },
    {
      "type": "Feature",
      "properties": {
        "name": "LAKE OTIS & PAGO PAGO NNW",
        "stop_id": "0030",
        "stop_code": null
      },
      "geometry": {
        "type": "Point",
        "coordinates": [
          -149.838328,
          61.168868
        ]
      }
    },
    {
      "type": "Feature",
      "properties": {
        "name": "LAKE OTIS & DOWLING",
        "stop_id": "0031",
        "stop_code": null
      },
      "geometry": {
        "type": "Point",
        "coordinates": [
          -149.838429,
          61.165865
        ]
      }
    },
    {
      "type": "Feature",
      "properties": {
        "name": "LAKE OTIS & 63RD AVENUE SSW",
        "stop_id": "0032",
        "stop_code": null
      },
      "geometry": {
        "type": "Point",
        "coordinates": [
          -149.835964,
          61.163456
        ]
      }
    },
    {
      "type": "Feature",
      "properties": {
        "name": "LAKE OTIS & 68TH AVENUE SSW",
        "stop_id": "0033",
        "stop_code": null
      },
      "geometry": {
        "type": "Point",
        "coordinates": [
          -149.83445,
          61.158822
        ]
      }
    },
    {
      "type": "Feature",
      "properties": {
        "name": "LAKE OTIS & 72ND AVENUE SSW",
        "stop_id": "0034",
        "stop_code": null
      },
      "geometry": {
        "type": "Point",
        "coordinates": [
          -149.83444,
          61.155016
        ]
      }
    },
    {
      "type": "Feature",
      "properties": {
        "name": "LAKE OTIS & LORE SSW",
        "stop_id": "0035",
        "stop_code": null
      },
      "geometry": {
        "type": "Point",
        "coordinates": [
          -149.834421,
          61.151457
        ]
      }
    },
    {
      "type": "Feature",
      "properties": {
        "name": "LAKE OTIS & 80TH AVENUE SSW",
        "stop_id": "0036",
        "stop_code": null
      },
      "geometry": {
        "type": "Point",
        "coordinates": [
          -149.834409,
          61.147558
        ]
      }
    },
    {
      "type": "Feature",
      "properties": {
        "name": "LAKE OTIS & 85TH AVENUE NNW",
        "stop_id": "0037",
        "stop_code": null
      },
      "geometry": {
        "type": "Point",
        "coordinates": [
          -149.834352,
          61.14402
        ]
      }
    },
    {
      "type": "Feature",
      "properties": {
        "name": "LAKE OTIS & 88TH AVENUE SSW",
        "stop_id": "0038",
        "stop_code": null
      },
      "geometry": {
        "type": "Point",
        "coordinates": [
          -149.834389,
          61.140782
        ]
      }
    },
    {
      "type": "Feature",
      "properties": {
        "name": "INDEPENDENCE & SENTRY NNW",
        "stop_id": "0043",
        "stop_code": null
      },
      "geometry": {
        "type": "Point",
        "coordinates": [
          -149.841718,
          61.134677
        ]
      }
    },
    {
      "type": "Feature",
      "properties": {
        "name": "INDEPENDENCE & VANGUARD SSW",
        "stop_id": "0044",
        "stop_code": null
      },
      "geometry": {
        "type": "Point",
        "coordinates": [
          -149.845513,
          61.131886
        ]
      }
    },
    {
      "type": "Feature",
      "properties": {
        "name": "INDEPENDENCE & COLONY SSW",
        "stop_id": "0045",
        "stop_code": null
      },
      "geometry": {
        "type": "Point",
        "coordinates": [
          -149.845923,
          61.13033
        ]
      }
    },
    {
      "type": "Feature",
      "properties": {
        "name": "JAMESTOWN & INDEPENDENCE SSW",
        "stop_id": "0046",
        "stop_code": null
      },
      "geometry": {
        "type": "Point",
        "coordinates": [
          -149.845564,
          61.128495
        ]
      }
    },
    {
      "type": "Feature",
      "properties": {
        "name": "JAMESTOWN & MRTHAS VNYRD NNW",
        "stop_id": "0047",
        "stop_code": null
      },
      "geometry": {
        "type": "Point",
        "coordinates": [
          -149.847048,
          61.127568
        ]
      }
    },
    {
      "type": "Feature",
      "properties": {
        "name": "JAMESTOWN & ELCADORE SSW",
        "stop_id": "0048",
        "stop_code": null
      },
      "geometry": {
        "type": "Point",
        "coordinates": [
          -149.848114,
          61.12522
        ]
      }
    },
    {
      "type": "Feature",
      "properties": {
        "name": "COMMODORE & ELCADORE NNW",
        "stop_id": "0049",
        "stop_code": null
      },
      "geometry": {
        "type": "Point",
        "coordinates": [
          -149.851073,
          61.123773
        ]
      }
    },
    {
      "type": "Feature",
      "properties": {
        "name": "O'MALLEY & BRAYTON WNW",
        "stop_id": "0050",
        "stop_code": null
      },
      "geometry": {
        "type": "Point",
        "coordinates": [
          -149.856079,
          61.123211
        ]
      }
    },
    {
      "type": "Feature",
      "properties": {
        "name": "OLD SEWARD & O'MALLEY NNE",
        "stop_id": "0051",
        "stop_code": null
      },
      "geometry": {
        "type": "Point",
        "coordinates": [
          -149.863409,
          61.123594
        ]
      }
    },
    {
      "type": "Feature",
      "properties": {
        "name": "OLD SEWARD & LINGON BERRY SSE",
        "stop_id": "0052",
        "stop_code": null
      },
      "geometry": {
        "type": "Point",
        "coordinates": [
          -149.863708,
          61.127702
        ]
      }
    },
    {
      "type": "Feature",
      "properties": {
        "name": "OLD SEWARD & SUNDOWN SSE",
        "stop_id": "0053",
        "stop_code": null
      },
      "geometry": {
        "type": "Point",
        "coordinates": [
          -149.863711,
          61.132639
        ]
      }
    },
    {
      "type": "Feature",
      "properties": {
        "name": "JAMESTOWN & RED CEDAR SSW",
        "stop_id": "0054",
        "stop_code": null
      },
      "geometry": {
        "type": "Point",
        "coordinates": [
          -149.848113,
          61.126583
        ]
      }
    },
    {
      "type": "Feature",
      "properties": {
        "name": "OLD SEWARD & ABBOTT NNE",
        "stop_id": "0055",
        "stop_code": null
      },
      "geometry": {
        "type": "Point",
        "coordinates": [
          -149.863756,
          61.137899
        ]
      }
    },
    {
      "type": "Feature",
      "properties": {
        "name": "DIMOND TRANSIT CENTER",
        "stop_id": "0057",
        "stop_code": null
      },
      "geometry": {
        "type": "Point",
        "coordinates": [
          -149.871953,
          61.142763
        ]
      }
    },
    {
      "type": "Feature",
      "properties": {
        "name": "OLD SEWARD & SUNDOWN NNW",
        "stop_id": "0060",
        "stop_code": null
      },
      "geometry": {
        "type": "Point",
        "coordinates": [
          -149.864123,
          61.133198
        ]
      }
    },
    {
      "type": "Feature",
      "properties": {
        "name": "OLD SEWARD & ABBOTT SSW",
        "stop_id": "0061",
        "stop_code": null
      },
      "geometry": {
        "type": "Point",
        "coordinates": [
          -149.864298,
          61.136813
        ]
      }
    },
    {
      "type": "Feature",
      "properties": {
        "name": "OLD SEWARD & LAKEWOOD NNW",
        "stop_id": "0062",
        "stop_code": null
      },
      "geometry": {
        "type": "Point",
        "coordinates": [
          -149.864169,
          61.134619
        ]
      }
    },
    {
      "type": "Feature",
      "properties": {
        "name": "OLD SEWARD & 100TH AV SSW",
        "stop_id": "0063",
        "stop_code": null
      },
      "geometry": {
        "type": "Point",
        "coordinates": [
          -149.864178,
          61.129561
        ]
      }
    },
    {
      "type": "Feature",
      "properties": {
        "name": "OLD SEWARD & LINGON BERRY SSW",
        "stop_id": "0064",
        "stop_code": null
      },
      "geometry": {
        "type": "Point",
        "coordinates": [
          -149.864138,
          61.127452
        ]
      }
    },
    {
      "type": "Feature",
      "properties": {
        "name": "O'MALLEY & O'MALLEY CTR WSW",
        "stop_id": "0065",
        "stop_code": null
      },
      "geometry": {
        "type": "Point",
        "coordinates": [
          -149.860896,
          61.122971
        ]
      }
    },
    {
      "type": "Feature",
      "properties": {
        "name": "COMMODORE & ELCADORE NNE",
        "stop_id": "0066",
        "stop_code": null
      },
      "geometry": {
        "type": "Point",
        "coordinates": [
          -149.850714,
          61.123771
        ]
      }
    },
    {
      "type": "Feature",
      "properties": {
        "name": "JAMESTOWN & COMMODORE NNE",
        "stop_id": "0067",
        "stop_code": null
      },
      "geometry": {
        "type": "Point",
        "coordinates": [
          -149.847875,
          61.12629
        ]
      }
    },
    {
      "type": "Feature",
      "properties": {
        "name": "JAMESTOWN & MRTHAS VNYRD NNE",
        "stop_id": "0068",
        "stop_code": null
      },
      "geometry": {
        "type": "Point",
        "coordinates": [
          -149.846782,
          61.127573
        ]
      }
    },
    {
      "type": "Feature",
      "properties": {
        "name": "INDEPENDENCE & JAMESTOWN WNW",
        "stop_id": "0069",
        "stop_code": null
      },
      "geometry": {
        "type": "Point",
        "coordinates": [
          -149.84526,
          61.129296
        ]
      }
    },
    {
      "type": "Feature",
      "properties": {
        "name": "INDEPENDENCE & COLONY NNE",
        "stop_id": "0070",
        "stop_code": null
      },
      "geometry": {
        "type": "Point",
        "coordinates": [
          -149.845694,
          61.131217
        ]
      }
    },
    {
      "type": "Feature",
      "properties": {
        "name": "INDEPENDENCE & VANGUARD NNE",
        "stop_id": "0071",
        "stop_code": null
      },
      "geometry": {
        "type": "Point",
        "coordinates": [
          -149.844028,
          61.132679
        ]
      }
    },
    {
      "type": "Feature",
      "properties": {
        "name": "INDEPENDENCE & SENTRY SSE",
        "stop_id": "0072",
        "stop_code": null
      },
      "geometry": {
        "type": "Point",
        "coordinates": [
          -149.841702,
          61.133822
        ]
      }
    },
    {
      "type": "Feature",
      "properties": {
        "name": "LAKE OTIS & ABBOTT",
        "stop_id": "0075",
        "stop_code": null
      },
      "geometry": {
        "type": "Point",
        "coordinates": [
          -149.833851,
          61.138063
        ]
      }
    },
    {
      "type": "Feature",
      "properties": {
        "name": "LAKE OTIS & 88TH AVENUE NNE",
        "stop_id": "0076",
        "stop_code": null
      },
      "geometry": {
        "type": "Point",
        "coordinates": [
          -149.83388,
          61.141626
        ]
      }
    },
    {
      "type": "Feature",
      "properties": {
        "name": "LAKE OTIS & 84TH AVENUE SSE",
        "stop_id": "0077",
        "stop_code": null
      },
      "geometry": {
        "type": "Point",
        "coordinates": [
          -149.833938,
          61.143466
        ]
      }
    },
    {
      "type": "Feature",
      "properties": {
        "name": "LAKE OTIS & 80TH AVENUE SSE",
        "stop_id": "0078",
        "stop_code": null
      },
      "geometry": {
        "type": "Point",
        "coordinates": [
          -149.833924,
          61.14801
        ]
      }
    },
    {
      "type": "Feature",
      "properties": {
        "name": "LAKE OTIS & LORE NNE",
        "stop_id": "0079",
        "stop_code": null
      },
      "geometry": {
        "type": "Point",
        "coordinates": [
          -149.833936,
          61.152491
        ]
      }
    },
    {
      "type": "Feature",
      "properties": {
        "name": "LAKE OTIS & 72ND AVENUE NNE",
        "stop_id": "0080",
        "stop_code": null
      },
      "geometry": {
        "type": "Point",
        "coordinates": [
          -149.833987,
          61.156034
        ]
      }
    },
    {
      "type": "Feature",
      "properties": {
        "name": "LAKE OTIS & 68TH AVENUE NNE",
        "stop_id": "0081",
        "stop_code": null
      },
      "geometry": {
        "type": "Point",
        "coordinates": [
          -149.833995,
          61.159673
        ]
      }
    },
    {
      "type": "Feature",
      "properties": {
        "name": "LAKE OTIS & 63RD AVENUE SSE",
        "stop_id": "0082",
        "stop_code": null
      },
      "geometry": {
        "type": "Point",
        "coordinates": [
          -149.834732,
          61.163002
        ]
      }
    },
    {
      "type": "Feature",
      "properties": {
        "name": "LAKE OTIS & DOWLING",
        "stop_id": "0083",
        "stop_code": null
      },
      "geometry": {
        "type": "Point",
        "coordinates": [
          -149.837928,
          61.167108
        ]
      }
    },
    {
      "type": "Feature",
      "properties": {
        "name": "LAKE OTIS & PAGO PAGO NNE",
        "stop_id": "0084",
        "stop_code": null
      },
      "geometry": {
        "type": "Point",
        "coordinates": [
          -149.837983,
          61.168973
        ]
      }
    },
    {
      "type": "Feature",
      "properties": {
        "name": "LAKE OTIS & YMCA E",
        "stop_id": "0085",
        "stop_code": null
      },
      "geometry": {
        "type": "Point",
        "coordinates": [
          -149.83799,
          61.172119
        ]
      }
    },
    {
      "type": "Feature",
      "properties": {
        "name": "LAKE OTIS & WALDRON NNE",
        "stop_id": "0086",
        "stop_code": null
      },
      "geometry": {
        "type": "Point",
        "coordinates": [
          -149.837926,
          61.175672
        ]
      }
    },
    {
      "type": "Feature",
      "properties": {
        "name": "LAKE OTIS & 48TH AVENUE NNE",
        "stop_id": "0087",
        "stop_code": null
      },
      "geometry": {
        "type": "Point",
        "coordinates": [
          -149.837896,
          61.178335
        ]
      }
    },
    {
      "type": "Feature",
      "properties": {
        "name": "LAKE OTIS & TUDOR",
        "stop_id": "0088",
        "stop_code": null
      },
      "geometry": {
        "type": "Point",
        "coordinates": [
          -149.83782,
          61.181574
        ]
      }
    },
    {
      "type": "Feature",
      "properties": {
        "name": "LAKE OTIS & 42ND AVENUE NNE",
        "stop_id": "0089",
        "stop_code": null
      },
      "geometry": {
        "type": "Point",
        "coordinates": [
          -149.83801,
          61.183027
        ]
      }
    },
    {
      "type": "Feature",
      "properties": {
        "name": "LAKE OTIS & 40TH AVENUE NNE",
        "stop_id": "0090",
        "stop_code": null
      },
      "geometry": {
        "type": "Point",
        "coordinates": [
          -149.837934,
          61.18525
        ]
      }
    },
    {
      "type": "Feature",
      "properties": {
        "name": "36TH AVENUE & LAKE OTIS WNW",
        "stop_id": "0091",
        "stop_code": null
      },
      "geometry": {
        "type": "Point",
        "coordinates": [
          -149.838994,
          61.188133
        ]
      }
    },
    {
      "type": "Feature",
      "properties": {
        "name": "36TH AVENUE & MACINNES WNW",
        "stop_id": "0093",
        "stop_code": null
      },
      "geometry": {
        "type": "Point",
        "coordinates": [
          -149.850219,
          61.188129
        ]
      }
    },
    {
      "type": "Feature",
      "properties": {
        "name": "36TH AVENUE & LATOUCHE WNW",
        "stop_id": "0095",
        "stop_code": null
      },
      "geometry": {
        "type": "Point",
        "coordinates": [
          -149.859491,
          61.188197
        ]
      }
    },
    {
      "type": "Feature",
      "properties": {
        "name": "36TH AVENUE & DENALI WNW",
        "stop_id": "0098",
        "stop_code": null
      },
      "geometry": {
        "type": "Point",
        "coordinates": [
          -149.878195,
          61.188196
        ]
      }
    },
    {
      "type": "Feature",
      "properties": {
        "name": "A STREET & 36TH AVE",
        "stop_id": "0099",
        "stop_code": null
      },
      "geometry": {
        "type": "Point",
        "coordinates": [
          -149.882889,
          61.189004
        ]
      }
    },
    {
      "type": "Feature",
      "properties": {
        "name": "A STREET & 31ST AVENUE SSE",
        "stop_id": "0100",
        "stop_code": null
      },
      "geometry": {
        "type": "Point",
        "coordinates": [
          -149.882929,
          61.192401
        ]
      }
    },
    {
      "type": "Feature",
      "properties": {
        "name": "A STREET & NORTHERN LIGHTS NNE",
        "stop_id": "0101",
        "stop_code": null
      },
      "geometry": {
        "type": "Point",
        "coordinates": [
          -149.882935,
          61.195933
        ]
      }
    },
    {
      "type": "Feature",
      "properties": {
        "name": "A STREET & FIREWEED NNE",
        "stop_id": "0102",
        "stop_code": null
      },
      "geometry": {
        "type": "Point",
        "coordinates": [
          -149.882806,
          61.199169
        ]
      }
    },
    {
      "type": "Feature",
      "properties": {
        "name": "A STREET & CHESTER CREEK TRAIL",
        "stop_id": "0103",
        "stop_code": null
      },
      "geometry": {
        "type": "Point",
        "coordinates": [
          -149.883145,
          61.204353
        ]
      }
    },
    {
      "type": "Feature",
      "properties": {
        "name": "A STREET & 16TH AVENUE NNE",
        "stop_id": "0104",
        "stop_code": null
      },
      "geometry": {
        "type": "Point",
        "coordinates": [
          -149.882898,
          61.206829
        ]
      }
    },
    {
      "type": "Feature",
      "properties": {
        "name": "A STREET & 13TH AVENUE NNE",
        "stop_id": "0105",
        "stop_code": null
      },
      "geometry": {
        "type": "Point",
        "coordinates": [
          -149.883095,
          61.210194
        ]
      }
    },
    {
      "type": "Feature",
      "properties": {
        "name": "A STREET & 11TH AVENUE NNE",
        "stop_id": "0106",
        "stop_code": null
      },
      "geometry": {
        "type": "Point",
        "coordinates": [
          -149.883276,
          61.212138
        ]
      }
    },
    {
      "type": "Feature",
      "properties": {
        "name": "SPENARD & 25TH AVENUE SSW",
        "stop_id": "0127",
        "stop_code": null
      },
      "geometry": {
        "type": "Point",
        "coordinates": [
          -149.905568,
          61.197572
        ]
      }
    },
    {
      "type": "Feature",
      "properties": {
        "name": "SPENARD & 27TH AVENUE SSW",
        "stop_id": "0128",
        "stop_code": null
      },
      "geometry": {
        "type": "Point",
        "coordinates": [
          -149.905579,
          61.196082
        ]
      }
    },
    {
      "type": "Feature",
      "properties": {
        "name": "SPENARD & NORTHERN LIGHTS",
        "stop_id": "0129",
        "stop_code": null
      },
      "geometry": {
        "type": "Point",
        "coordinates": [
          -149.905786,
          61.194405
        ]
      }
    },
    {
      "type": "Feature",
      "properties": {
        "name": "SPENARD & 30TH AVENUE NNW",
        "stop_id": "0130",
        "stop_code": null
      },
      "geometry": {
        "type": "Point",
        "coordinates": [
          -149.905774,
          61.193005
        ]
      }
    },
    {
      "type": "Feature",
      "properties": {
        "name": "SPENARD & 33RD AVENUE NNW",
        "stop_id": "0131",
        "stop_code": null
      },
      "geometry": {
        "type": "Point",
        "coordinates": [
          -149.907481,
          61.190675
        ]
      }
    },
    {
      "type": "Feature",
      "properties": {
        "name": "SPENARD & 34TH AVENUE SSW",
        "stop_id": "0132",
        "stop_code": null
      },
      "geometry": {
        "type": "Point",
        "coordinates": [
          -149.908677,
          61.189041
        ]
      }
    },
    {
      "type": "Feature",
      "properties": {
        "name": "SPENARD & MINNESOTA ENE",
        "stop_id": "0133",
        "stop_code": null
      },
      "geometry": {
        "type": "Point",
        "coordinates": [
          -149.912189,
          61.186983
        ]
      }
    },
    {
      "type": "Feature",
      "properties": {
        "name": "SPENARD & GREENLAND WNW",
        "stop_id": "0134",
        "stop_code": null
      },
      "geometry": {
        "type": "Point",
        "coordinates": [
          -149.914835,
          61.186667
        ]
      }
    },
    {
      "type": "Feature",
      "properties": {
        "name": "SPENARD & OREGON WNW",
        "stop_id": "0135",
        "stop_code": null
      },
      "geometry": {
        "type": "Point",
        "coordinates": [
          -149.918527,
          61.186078
        ]
      }
    },
    {
      "type": "Feature",
      "properties": {
        "name": "SPENARD & MCRAE WNW",
        "stop_id": "0136",
        "stop_code": null
      },
      "geometry": {
        "type": "Point",
        "coordinates": [
          -149.923969,
          61.185175
        ]
      }
    },
    {
      "type": "Feature",
      "properties": {
        "name": "SPENARD & NORTHWOOD ENE",
        "stop_id": "0137",
        "stop_code": null
      },
      "geometry": {
        "type": "Point",
        "coordinates": [
          -149.927104,
          61.183869
        ]
      }
    },
    {
      "type": "Feature",
      "properties": {
        "name": "SPENARD & WISCONSIN",
        "stop_id": "0141",
        "stop_code": null
      },
      "geometry": {
        "type": "Point",
        "coordinates": [
          -149.939617,
          61.178721
        ]
      }
    },
    {
      "type": "Feature",
      "properties": {
        "name": "SPENARD & BREEZEWOOD SSW",
        "stop_id": "0142",
        "stop_code": null
      },
      "geometry": {
        "type": "Point",
        "coordinates": [
          -149.942041,
          61.177061
        ]
      }
    },
    {
      "type": "Feature",
      "properties": {
        "name": "SPENARD & INTL ARPT RD NNW",
        "stop_id": "0143",
        "stop_code": null
      },
      "geometry": {
        "type": "Point",
        "coordinates": [
          -149.944283,
          61.175228
        ]
      }
    },
    {
      "type": "Feature",
      "properties": {
        "name": "JEWEL LAKE & INTL AIRPORT SSW",
        "stop_id": "0144",
        "stop_code": null
      },
      "geometry": {
        "type": "Point",
        "coordinates": [
          -149.943333,
          61.173138
        ]
      }
    },
    {
      "type": "Feature",
      "properties": {
        "name": "COLLINS WAY & JEWEL LAKE SSW",
        "stop_id": "0145",
        "stop_code": null
      },
      "geometry": {
        "type": "Point",
        "coordinates": [
          -149.942721,
          61.166328
        ]
      }
    },
    {
      "type": "Feature",
      "properties": {
        "name": "COLLINS WAY & 62ND AVENUE NNW",
        "stop_id": "0146",
        "stop_code": null
      },
      "geometry": {
        "type": "Point",
        "coordinates": [
          -149.94039,
          61.164603
        ]
      }
    },
    {
      "type": "Feature",
      "properties": {
        "name": "64TH AVENUE & COLLINS WAY ESE",
        "stop_id": "0147",
        "stop_code": null
      },
      "geometry": {
        "type": "Point",
        "coordinates": [
          -149.938009,
          61.162726
        ]
      }
    },
    {
      "type": "Feature",
      "properties": {
        "name": "CRANBERRY & HOLLY SSW",
        "stop_id": "0148",
        "stop_code": null
      },
      "geometry": {
        "type": "Point",
        "coordinates": [
          -149.936982,
          61.160777
        ]
      }
    },
    {
      "type": "Feature",
      "properties": {
        "name": "RASPBERRY & CRANBERRY WNW",
        "stop_id": "0149",
        "stop_code": null
      },
      "geometry": {
        "type": "Point",
        "coordinates": [
          -149.937835,
          61.159472
        ]
      }
    },
    {
      "type": "Feature",
      "properties": {
        "name": "RASPBERRY & BLACKBERRY WNW",
        "stop_id": "0151",
        "stop_code": null
      },
      "geometry": {
        "type": "Point",
        "coordinates": [
          -149.945456,
          61.159343
        ]
      }
    },
    {
      "type": "Feature",
      "properties": {
        "name": "JEWEL LAKE & RASPBERRY SSW",
        "stop_id": "0154",
        "stop_code": null
      },
      "geometry": {
        "type": "Point",
        "coordinates": [
          -149.95201,
          61.158084
        ]
      }
    },
    {
      "type": "Feature",
      "properties": {
        "name": "JEWEL LAKE & 74TH AVENUE NNW",
        "stop_id": "0155",
        "stop_code": null
      },
      "geometry": {
        "type": "Point",
        "coordinates": [
          -149.952108,
          61.15393
        ]
      }
    },
    {
      "type": "Feature",
      "properties": {
        "name": "JEWEL LAKE & STRAWBERRY SSW",
        "stop_id": "0156",
        "stop_code": null
      },
      "geometry": {
        "type": "Point",
        "coordinates": [
          -149.952125,
          61.151515
        ]
      }
    },
    {
      "type": "Feature",
      "properties": {
        "name": "JEWEL LAKE & 79TH COURT SSW",
        "stop_id": "0157",
        "stop_code": null
      },
      "geometry": {
        "type": "Point",
        "coordinates": [
          -149.952135,
          61.149323
        ]
      }
    },
    {
      "type": "Feature",
      "properties": {
        "name": "JEWEL LAKE & 82ND AVENUE NNW",
        "stop_id": "0158",
        "stop_code": null
      },
      "geometry": {
        "type": "Point",
        "coordinates": [
          -149.95212,
          61.146888
        ]
      }
    },
    {
      "type": "Feature",
      "properties": {
        "name": "JEWEL LAKE & 84TH AVENUE NNW",
        "stop_id": "0159",
        "stop_code": null
      },
      "geometry": {
        "type": "Point",
        "coordinates": [
          -149.952091,
          61.144944
        ]
      }
    },
    {
      "type": "Feature",
      "properties": {
        "name": "JEWEL LAKE & 88TH AVE",
        "stop_id": "0162",
        "stop_code": null
      },
      "geometry": {
        "type": "Point",
        "coordinates": [
          -149.949989,
          61.141015
        ]
      }
    },
    {
      "type": "Feature",
      "properties": {
        "name": "88TH AVENUE & ALAMOSA ESE",
        "stop_id": "0163",
        "stop_code": null
      },
      "geometry": {
        "type": "Point",
        "coordinates": [
          -149.945966,
          61.141002
        ]
      }
    },
    {
      "type": "Feature",
      "properties": {
        "name": "88TH AVENUE & DEWBERRY ESE",
        "stop_id": "0164",
        "stop_code": null
      },
      "geometry": {
        "type": "Point",
        "coordinates": [
          -149.939802,
          61.141005
        ]
      }
    },
    {
      "type": "Feature",
      "properties": {
        "name": "88TH AVENUE & CRANBERRY ESE",
        "stop_id": "0165",
        "stop_code": null
      },
      "geometry": {
        "type": "Point",
        "coordinates": [
          -149.936335,
          61.140991
        ]
      }
    },
    {
      "type": "Feature",
      "properties": {
        "name": "88TH AVENUE & FOREST VILLAGE ESE",
        "stop_id": "0166",
        "stop_code": null
      },
      "geometry": {
        "type": "Point",
        "coordinates": [
          -149.933041,
          61.141015
        ]
      }
    },
    {
      "type": "Feature",
      "properties": {
        "name": "ARLENE & DIMOND NNW",
        "stop_id": "0167",
        "stop_code": null
      },
      "geometry": {
        "type": "Point",
        "coordinates": [
          -149.929531,
          61.1384
        ]
      }
    },
    {
      "type": "Feature",
      "properties": {
        "name": "DIMOND & VICTOR ESE",
        "stop_id": "0177",
        "stop_code": null
      },
      "geometry": {
        "type": "Point",
        "coordinates": [
          -149.919241,
          61.137278
        ]
      }
    },
    {
      "type": "Feature",
      "properties": {
        "name": "DIMOND & MINNESOTA ESE",
        "stop_id": "0179",
        "stop_code": null
      },
      "geometry": {
        "type": "Point",
        "coordinates": [
          -149.905249,
          61.140868
        ]
      }
    },
    {
      "type": "Feature",
      "properties": {
        "name": "DIMOND & ANGELA ESE",
        "stop_id": "0180",
        "stop_code": null
      },
      "geometry": {
        "type": "Point",
        "coordinates": [
          -149.914884,
          61.13814
        ]
      }
    },
    {
      "type": "Feature",
      "properties": {
        "name": "DIMOND & DIMOND CTR DR WNW",
        "stop_id": "0189",
        "stop_code": null
      },
      "geometry": {
        "type": "Point",
        "coordinates": [
          -149.872669,
          61.144916
        ]
      }
    },
    {
      "type": "Feature",
      "properties": {
        "name": "DIMOND & C STREET WNW",
        "stop_id": "0191",
        "stop_code": null
      },
      "geometry": {
        "type": "Point",
        "coordinates": [
          -149.888768,
          61.144911
        ]
      }
    },
    {
      "type": "Feature",
      "properties": {
        "name": "DIMOND & MINNESOTA ENE",
        "stop_id": "0193",
        "stop_code": null
      },
      "geometry": {
        "type": "Point",
        "coordinates": [
          -149.905399,
          61.141256
        ]
      }
    },
    {
      "type": "Feature",
      "properties": {
        "name": "DIMOND & ANGELA ENE",
        "stop_id": "0194",
        "stop_code": null
      },
      "geometry": {
        "type": "Point",
        "coordinates": [
          -149.915181,
          61.138601
        ]
      }
    },
    {
      "type": "Feature",
      "properties": {
        "name": "DIMOND & VICTOR WNW",
        "stop_id": "0195",
        "stop_code": null
      },
      "geometry": {
        "type": "Point",
        "coordinates": [
          -149.923468,
          61.137655
        ]
      }
    },
    {
      "type": "Feature",
      "properties": {
        "name": "88TH AVENUE & FOREST VILLAGE ENE",
        "stop_id": "0198",
        "stop_code": null
      },
      "geometry": {
        "type": "Point",
        "coordinates": [
          -149.933541,
          61.14115
        ]
      }
    },
    {
      "type": "Feature",
      "properties": {
        "name": "88TH AVENUE & CRANBERRY WNW",
        "stop_id": "0199",
        "stop_code": null
      },
      "geometry": {
        "type": "Point",
        "coordinates": [
          -149.937753,
          61.141153
        ]
      }
    },
    {
      "type": "Feature",
      "properties": {
        "name": "88TH AVENUE & DEWBERRY WNW",
        "stop_id": "0200",
        "stop_code": null
      },
      "geometry": {
        "type": "Point",
        "coordinates": [
          -149.941504,
          61.141195
        ]
      }
    },
    {
      "type": "Feature",
      "properties": {
        "name": "88TH AVENUE & ALAMOSA WNW",
        "stop_id": "0201",
        "stop_code": null
      },
      "geometry": {
        "type": "Point",
        "coordinates": [
          -149.946659,
          61.14118
        ]
      }
    },
    {
      "type": "Feature",
      "properties": {
        "name": "88TH AVENUE & MOLANARY WNW",
        "stop_id": "0202",
        "stop_code": null
      },
      "geometry": {
        "type": "Point",
        "coordinates": [
          -149.949873,
          61.141198
        ]
      }
    },
    {
      "type": "Feature",
      "properties": {
        "name": "JEWEL LAKE & 88TH AVE",
        "stop_id": "0210",
        "stop_code": null
      },
      "geometry": {
        "type": "Point",
        "coordinates": [
          -149.951684,
          61.141705
        ]
      }
    },
    {
      "type": "Feature",
      "properties": {
        "name": "JEWEL LAKE & 84TH AVENUE SSE",
        "stop_id": "0212",
        "stop_code": null
      },
      "geometry": {
        "type": "Point",
        "coordinates": [
          -149.951693,
          61.144536
        ]
      }
    },
    {
      "type": "Feature",
      "properties": {
        "name": "JEWEL LAKE & 82ND AVENUE NNE",
        "stop_id": "0213",
        "stop_code": null
      },
      "geometry": {
        "type": "Point",
        "coordinates": [
          -149.951743,
          61.146968
        ]
      }
    },
    {
      "type": "Feature",
      "properties": {
        "name": "JEWEL LAKE & 79TH AVENUE SSE",
        "stop_id": "0214",
        "stop_code": null
      },
      "geometry": {
        "type": "Point",
        "coordinates": [
          -149.951648,
          61.149121
        ]
      }
    },
    {
      "type": "Feature",
      "properties": {
        "name": "JEWEL LAKE & STRAWBERRY NNE",
        "stop_id": "0215",
        "stop_code": null
      },
      "geometry": {
        "type": "Point",
        "coordinates": [
          -149.951774,
          61.152264
        ]
      }
    },
    {
      "type": "Feature",
      "properties": {
        "name": "JEWEL LAKE & 74TH AVENUE NNE",
        "stop_id": "0216",
        "stop_code": null
      },
      "geometry": {
        "type": "Point",
        "coordinates": [
          -149.951595,
          61.154355
        ]
      }
    },
    {
      "type": "Feature",
      "properties": {
        "name": "JEWEL LAKE & WEIMER NNE",
        "stop_id": "0217",
        "stop_code": null
      },
      "geometry": {
        "type": "Point",
        "coordinates": [
          -149.951648,
          61.156645
        ]
      }
    },
    {
      "type": "Feature",
      "properties": {
        "name": "RASPBERRY & JEWEL LAKE ESE",
        "stop_id": "0218",
        "stop_code": null
      },
      "geometry": {
        "type": "Point",
        "coordinates": [
          -149.950401,
          61.159048
        ]
      }
    },
    {
      "type": "Feature",
      "properties": {
        "name": "RASPBERRY & CHEVIGNY ESE",
        "stop_id": "0219",
        "stop_code": null
      },
      "geometry": {
        "type": "Point",
        "coordinates": [
          -149.945902,
          61.159134
        ]
      }
    },
    {
      "type": "Feature",
      "properties": {
        "name": "RASPBERRY & CRANBERRY WSW",
        "stop_id": "0220",
        "stop_code": null
      },
      "geometry": {
        "type": "Point",
        "coordinates": [
          -149.941101,
          61.159056
        ]
      }
    },
    {
      "type": "Feature",
      "properties": {
        "name": "CRANBERRY & 65TH AVENUE SSE",
        "stop_id": "0222",
        "stop_code": null
      },
      "geometry": {
        "type": "Point",
        "coordinates": [
          -149.936765,
          61.161315
        ]
      }
    },
    {
      "type": "Feature",
      "properties": {
        "name": "64TH AVENUE & COLLINS WAY ENE",
        "stop_id": "0223",
        "stop_code": null
      },
      "geometry": {
        "type": "Point",
        "coordinates": [
          -149.938341,
          61.162801
        ]
      }
    },
    {
      "type": "Feature",
      "properties": {
        "name": "COLLINS WAY & 62ND AVENUE NNE",
        "stop_id": "0224",
        "stop_code": null
      },
      "geometry": {
        "type": "Point",
        "coordinates": [
          -149.940259,
          61.164687
        ]
      }
    },
    {
      "type": "Feature",
      "properties": {
        "name": "COLLINS WAY & JEWEL LAKE SSE",
        "stop_id": "0225",
        "stop_code": null
      },
      "geometry": {
        "type": "Point",
        "coordinates": [
          -149.942512,
          61.166285
        ]
      }
    },
    {
      "type": "Feature",
      "properties": {
        "name": "JEWEL LAKE & INTL AIRPORT SSE",
        "stop_id": "0226",
        "stop_code": null
      },
      "geometry": {
        "type": "Point",
        "coordinates": [
          -149.942827,
          61.173339
        ]
      }
    },
    {
      "type": "Feature",
      "properties": {
        "name": "SPENARD & INTL ARPT RD NNE",
        "stop_id": "0227",
        "stop_code": null
      },
      "geometry": {
        "type": "Point",
        "coordinates": [
          -149.943772,
          61.175119
        ]
      }
    },
    {
      "type": "Feature",
      "properties": {
        "name": "SPENARD & VALLEYWOOD NNE",
        "stop_id": "0228",
        "stop_code": null
      },
      "geometry": {
        "type": "Point",
        "coordinates": [
          -149.940313,
          61.177654
        ]
      }
    },
    {
      "type": "Feature",
      "properties": {
        "name": "SPENARD & WISCONSIN",
        "stop_id": "0229",
        "stop_code": null
      },
      "geometry": {
        "type": "Point",
        "coordinates": [
          -149.938168,
          61.17964
        ]
      }
    },
    {
      "type": "Feature",
      "properties": {
        "name": "SPENARD & MCKINLEY SSE",
        "stop_id": "0232",
        "stop_code": null
      },
      "geometry": {
        "type": "Point",
        "coordinates": [
          -149.926171,
          61.183983
        ]
      }
    },
    {
      "type": "Feature",
      "properties": {
        "name": "SPENARD & TAFT ESE",
        "stop_id": "0233",
        "stop_code": null
      },
      "geometry": {
        "type": "Point",
        "coordinates": [
          -149.922413,
          61.185367
        ]
      }
    },
    {
      "type": "Feature",
      "properties": {
        "name": "SPENARD & WYOMING WSW",
        "stop_id": "0234",
        "stop_code": null
      },
      "geometry": {
        "type": "Point",
        "coordinates": [
          -149.916088,
          61.186326
        ]
      }
    },
    {
      "type": "Feature",
      "properties": {
        "name": "SPENARD & MINNESOTA ESE",
        "stop_id": "0235",
        "stop_code": null
      },
      "geometry": {
        "type": "Point",
        "coordinates": [
          -149.911704,
          61.186843
        ]
      }
    },
    {
      "type": "Feature",
      "properties": {
        "name": "SPENARD & 36TH AVENUE NNE",
        "stop_id": "0236",
        "stop_code": null
      },
      "geometry": {
        "type": "Point",
        "coordinates": [
          -149.90845,
          61.18847
        ]
      }
    },
    {
      "type": "Feature",
      "properties": {
        "name": "SPENARD & 33RD AVENUE NNE",
        "stop_id": "0237",
        "stop_code": null
      },
      "geometry": {
        "type": "Point",
        "coordinates": [
          -149.906626,
          61.191292
        ]
      }
    },
    {
      "type": "Feature",
      "properties": {
        "name": "SPENARD & Benson Blvd SSE",
        "stop_id": "0238",
        "stop_code": null
      },
      "geometry": {
        "type": "Point",
        "coordinates": [
          -149.90529,
          61.193564
        ]
      }
    },
    {
      "type": "Feature",
      "properties": {
        "name": "SPENARD & NORTHERN LIGHTS",
        "stop_id": "0239",
        "stop_code": null
      },
      "geometry": {
        "type": "Point",
        "coordinates": [
          -149.905287,
          61.195857
        ]
      }
    },
    {
      "type": "Feature",
      "properties": {
        "name": "SPENARD & 26TH AVE NNE",
        "stop_id": "0240",
        "stop_code": null
      },
      "geometry": {
        "type": "Point",
        "coordinates": [
          -149.905386,
          61.197453
        ]
      }
    },
    {
      "type": "Feature",
      "properties": {
        "name": "17TH AVENUE & E STREET WSW",
        "stop_id": "0245",
        "stop_code": null
      },
      "geometry": {
        "type": "Point",
        "coordinates": [
          -149.892528,
          61.205238
        ]
      }
    },
    {
      "type": "Feature",
      "properties": {
        "name": "A STREET & 8TH AVENUE NNE",
        "stop_id": "0250",
        "stop_code": null
      },
      "geometry": {
        "type": "Point",
        "coordinates": [
          -149.883118,
          61.215023
        ]
      }
    },
    {
      "type": "Feature",
      "properties": {
        "name": "BENSON & SPENARD ESE",
        "stop_id": "0275",
        "stop_code": null
      },
      "geometry": {
        "type": "Point",
        "coordinates": [
          -149.904487,
          61.193942
        ]
      }
    },
    {
      "type": "Feature",
      "properties": {
        "name": "BENSON & ARCTIC ESE",
        "stop_id": "0276",
        "stop_code": null
      },
      "geometry": {
        "type": "Point",
        "coordinates": [
          -149.896939,
          61.194138
        ]
      }
    },
    {
      "type": "Feature",
      "properties": {
        "name": "BENSON & CHEECHAKO ESE",
        "stop_id": "0277",
        "stop_code": null
      },
      "geometry": {
        "type": "Point",
        "coordinates": [
          -149.893564,
          61.194175
        ]
      }
    },
    {
      "type": "Feature",
      "properties": {
        "name": "BENSON & EUREKA ESE",
        "stop_id": "0278",
        "stop_code": null
      },
      "geometry": {
        "type": "Point",
        "coordinates": [
          -149.889929,
          61.194167
        ]
      }
    },
    {
      "type": "Feature",
      "properties": {
        "name": "BENSON & C ST",
        "stop_id": "0279",
        "stop_code": null
      },
      "geometry": {
        "type": "Point",
        "coordinates": [
          -149.88568,
          61.194147
        ]
      }
    },
    {
      "type": "Feature",
      "properties": {
        "name": "BENSON & A STREET ESE",
        "stop_id": "0280",
        "stop_code": null
      },
      "geometry": {
        "type": "Point",
        "coordinates": [
          -149.879827,
          61.19369
        ]
      }
    },
    {
      "type": "Feature",
      "properties": {
        "name": "BENSON & DENALI ESE",
        "stop_id": "0281",
        "stop_code": null
      },
      "geometry": {
        "type": "Point",
        "coordinates": [
          -149.875129,
          61.193381
        ]
      }
    },
    {
      "type": "Feature",
      "properties": {
        "name": "BENSON & NEW SEWARD ESE",
        "stop_id": "0282",
        "stop_code": null
      },
      "geometry": {
        "type": "Point",
        "coordinates": [
          -149.866474,
          61.193322
        ]
      }
    },
    {
      "type": "Feature",
      "properties": {
        "name": "BENSON & LATOUCHE ESE",
        "stop_id": "0283",
        "stop_code": null
      },
      "geometry": {
        "type": "Point",
        "coordinates": [
          -149.85976,
          61.194516
        ]
      }
    },
    {
      "type": "Feature",
      "properties": {
        "name": "NORTHERN LIGHTS & REDWOOD ESE",
        "stop_id": "0284",
        "stop_code": null
      },
      "geometry": {
        "type": "Point",
        "coordinates": [
          -149.855217,
          61.195305
        ]
      }
    },
    {
      "type": "Feature",
      "properties": {
        "name": "NORTHERN LIGHTS & DRAKE WSW",
        "stop_id": "0285",
        "stop_code": null
      },
      "geometry": {
        "type": "Point",
        "coordinates": [
          -149.846588,
          61.195223
        ]
      }
    },
    {
      "type": "Feature",
      "properties": {
        "name": "NORTHERN LIGHTS & LAKE OTIS WSW",
        "stop_id": "0286",
        "stop_code": null
      },
      "geometry": {
        "type": "Point",
        "coordinates": [
          -149.842519,
          61.195219
        ]
      }
    },
    {
      "type": "Feature",
      "properties": {
        "name": "PROVIDENCE & PIPER ESE",
        "stop_id": "0291",
        "stop_code": null
      },
      "geometry": {
        "type": "Point",
        "coordinates": [
          -149.828212,
          61.1879
        ]
      }
    },
    {
      "type": "Feature",
      "properties": {
        "name": "UAA DRIVE & PROVIDENCE NNE",
        "stop_id": "0293",
        "stop_code": null
      },
      "geometry": {
        "type": "Point",
        "coordinates": [
          -149.82235,
          61.190268
        ]
      }
    },
    {
      "type": "Feature",
      "properties": {
        "name": "BONIFACE & NORTHERN LIGHTS NNE",
        "stop_id": "0302",
        "stop_code": null
      },
      "geometry": {
        "type": "Point",
        "coordinates": [
          -149.778172,
          61.195917
        ]
      }
    },
    {
      "type": "Feature",
      "properties": {
        "name": "BONIFACE & 24TH AVENUE SSE",
        "stop_id": "0303",
        "stop_code": null
      },
      "geometry": {
        "type": "Point",
        "coordinates": [
          -149.778171,
          61.198302
        ]
      }
    },
    {
      "type": "Feature",
      "properties": {
        "name": "PEMBROKE & COLLEGE SSE",
        "stop_id": "0304",
        "stop_code": null
      },
      "geometry": {
        "type": "Point",
        "coordinates": [
          -149.777904,
          61.200347
        ]
      }
    },
    {
      "type": "Feature",
      "properties": {
        "name": "PENN & RADCLIFFE SSE",
        "stop_id": "0305",
        "stop_code": null
      },
      "geometry": {
        "type": "Point",
        "coordinates": [
          -149.776269,
          61.201935
        ]
      }
    },
    {
      "type": "Feature",
      "properties": {
        "name": "STERLING & RICHARDSON ESE",
        "stop_id": "0306",
        "stop_code": null
      },
      "geometry": {
        "type": "Point",
        "coordinates": [
          -149.774585,
          61.20417
        ]
      }
    },
    {
      "type": "Feature",
      "properties": {
        "name": "NUNAKA & FULTON NNE",
        "stop_id": "0307",
        "stop_code": null
      },
      "geometry": {
        "type": "Point",
        "coordinates": [
          -149.772306,
          61.204589
        ]
      }
    },
    {
      "type": "Feature",
      "properties": {
        "name": "NUNAKA & MILEY NNE",
        "stop_id": "0308",
        "stop_code": null
      },
      "geometry": {
        "type": "Point",
        "coordinates": [
          -149.769913,
          61.207597
        ]
      }
    },
    {
      "type": "Feature",
      "properties": {
        "name": "NUNAKA & DEBARR",
        "stop_id": "0309",
        "stop_code": null
      },
      "geometry": {
        "type": "Point",
        "coordinates": [
          -149.769918,
          61.209234
        ]
      }
    },
    {
      "type": "Feature",
      "properties": {
        "name": "DEBARR & BEAVER ESE",
        "stop_id": "0311",
        "stop_code": null
      },
      "geometry": {
        "type": "Point",
        "coordinates": [
          -149.761838,
          61.209644
        ]
      }
    },
    {
      "type": "Feature",
      "properties": {
        "name": "DEBARR & TURPIN ESE",
        "stop_id": "0312",
        "stop_code": null
      },
      "geometry": {
        "type": "Point",
        "coordinates": [
          -149.754945,
          61.209625
        ]
      }
    },
    {
      "type": "Feature",
      "properties": {
        "name": "CHANDALAR & 2441 EAST",
        "stop_id": "0321",
        "stop_code": null
      },
      "geometry": {
        "type": "Point",
        "coordinates": [
          -149.74496,
          61.198167
        ]
      }
    },
    {
      "type": "Feature",
      "properties": {
        "name": "CHANDALAR & 2251 EAST",
        "stop_id": "0322",
        "stop_code": null
      },
      "geometry": {
        "type": "Point",
        "coordinates": [
          -149.7445,
          61.199799
        ]
      }
    },
    {
      "type": "Feature",
      "properties": {
        "name": "CHANDALAR & 20TH AVENUE SSE",
        "stop_id": "0323",
        "stop_code": null
      },
      "geometry": {
        "type": "Point",
        "coordinates": [
          -149.741649,
          61.202818
        ]
      }
    },
    {
      "type": "Feature",
      "properties": {
        "name": "20TH AVENUE & DIOMEDE WNW",
        "stop_id": "0324",
        "stop_code": null
      },
      "geometry": {
        "type": "Point",
        "coordinates": [
          -149.744486,
          61.20333
        ]
      }
    },
    {
      "type": "Feature",
      "properties": {
        "name": "PATTERSON & 20TH AVENUE NNE",
        "stop_id": "0325",
        "stop_code": null
      },
      "geometry": {
        "type": "Point",
        "coordinates": [
          -149.748302,
          61.203858
        ]
      }
    },
    {
      "type": "Feature",
      "properties": {
        "name": "PATTERSON & 17TH AVENUE NNE",
        "stop_id": "0326",
        "stop_code": null
      },
      "geometry": {
        "type": "Point",
        "coordinates": [
          -149.748294,
          61.206027
        ]
      }
    },
    {
      "type": "Feature",
      "properties": {
        "name": "PATTERSON & MINK NNE",
        "stop_id": "0327",
        "stop_code": null
      },
      "geometry": {
        "type": "Point",
        "coordinates": [
          -149.748303,
          61.209246
        ]
      }
    },
    {
      "type": "Feature",
      "properties": {
        "name": "DEBARR & PATTERSON ESE",
        "stop_id": "0330",
        "stop_code": null
      },
      "geometry": {
        "type": "Point",
        "coordinates": [
          -149.747607,
          61.209649
        ]
      }
    },
    {
      "type": "Feature",
      "properties": {
        "name": "DEBARR & CREEKSIDE CTR WSW",
        "stop_id": "0331",
        "stop_code": null
      },
      "geometry": {
        "type": "Point",
        "coordinates": [
          -149.741852,
          61.209659
        ]
      }
    },
    {
      "type": "Feature",
      "properties": {
        "name": "DEBARR & GRASS CREEK ESE",
        "stop_id": "0332",
        "stop_code": null
      },
      "geometry": {
        "type": "Point",
        "coordinates": [
          -149.73645,
          61.20967
        ]
      }
    },
    {
      "type": "Feature",
      "properties": {
        "name": "DEBARR & MULDOON",
        "stop_id": "0355",
        "stop_code": null
      },
      "geometry": {
        "type": "Point",
        "coordinates": [
          -149.73524,
          61.209843
        ]
      }
    },
    {
      "type": "Feature",
      "properties": {
        "name": "DEBARR & CREEKSIDE CTR ENE",
        "stop_id": "0356",
        "stop_code": null
      },
      "geometry": {
        "type": "Point",
        "coordinates": [
          -149.740571,
          61.209853
        ]
      }
    },
    {
      "type": "Feature",
      "properties": {
        "name": "PATTERSON & MINK SSW",
        "stop_id": "0358",
        "stop_code": null
      },
      "geometry": {
        "type": "Point",
        "coordinates": [
          -149.74851,
          61.20891
        ]
      }
    },
    {
      "type": "Feature",
      "properties": {
        "name": "PATTERSON & 16TH AVENUE SSW",
        "stop_id": "0359",
        "stop_code": null
      },
      "geometry": {
        "type": "Point",
        "coordinates": [
          -149.748513,
          61.205967
        ]
      }
    },
    {
      "type": "Feature",
      "properties": {
        "name": "20TH AVENUE & BARBOA WSW",
        "stop_id": "0360",
        "stop_code": null
      },
      "geometry": {
        "type": "Point",
        "coordinates": [
          -149.745097,
          61.203389
        ]
      }
    },
    {
      "type": "Feature",
      "properties": {
        "name": "CHANDALAR & 21ST AVENUE SSW",
        "stop_id": "0361",
        "stop_code": null
      },
      "geometry": {
        "type": "Point",
        "coordinates": [
          -149.742005,
          61.201804
        ]
      }
    },
    {
      "type": "Feature",
      "properties": {
        "name": "CHANDALAR & 2300 WEST",
        "stop_id": "0362",
        "stop_code": null
      },
      "geometry": {
        "type": "Point",
        "coordinates": [
          -149.744774,
          61.199677
        ]
      }
    },
    {
      "type": "Feature",
      "properties": {
        "name": "CHANDALAR & 2450 WEST",
        "stop_id": "0363",
        "stop_code": null
      },
      "geometry": {
        "type": "Point",
        "coordinates": [
          -149.7452,
          61.197753
        ]
      }
    },
    {
      "type": "Feature",
      "properties": {
        "name": "NORTHERN LIGHTS & AUGUSTINE WNW",
        "stop_id": "0364",
        "stop_code": null
      },
      "geometry": {
        "type": "Point",
        "coordinates": [
          -149.744501,
          61.19545
        ]
      }
    },
    {
      "type": "Feature",
      "properties": {
        "name": "PATTERSON & NORTHERN LIGHTS",
        "stop_id": "0365",
        "stop_code": null
      },
      "geometry": {
        "type": "Point",
        "coordinates": [
          -149.749774,
          61.195521
        ]
      }
    },
    {
      "type": "Feature",
      "properties": {
        "name": "NORTHERN LIGHTS & BRITTANY WNW",
        "stop_id": "0366",
        "stop_code": null
      },
      "geometry": {
        "type": "Point",
        "coordinates": [
          -149.755351,
          61.195496
        ]
      }
    },
    {
      "type": "Feature",
      "properties": {
        "name": "NORTHERN LIGHTS & CIMMARON WNW",
        "stop_id": "0367",
        "stop_code": null
      },
      "geometry": {
        "type": "Point",
        "coordinates": [
          -149.759163,
          61.195451
        ]
      }
    },
    {
      "type": "Feature",
      "properties": {
        "name": "NORTHERN LIGHTS & BAXTER WNW",
        "stop_id": "0368",
        "stop_code": null
      },
      "geometry": {
        "type": "Point",
        "coordinates": [
          -149.764613,
          61.195355
        ]
      }
    },
    {
      "type": "Feature",
      "properties": {
        "name": "NORTHERN LIGHTS & DERBY WNW",
        "stop_id": "0369",
        "stop_code": null
      },
      "geometry": {
        "type": "Point",
        "coordinates": [
          -149.769304,
          61.195348
        ]
      }
    },
    {
      "type": "Feature",
      "properties": {
        "name": "DEBARR & PATTERSON WNW",
        "stop_id": "0372",
        "stop_code": null
      },
      "geometry": {
        "type": "Point",
        "coordinates": [
          -149.749293,
          61.20982
        ]
      }
    },
    {
      "type": "Feature",
      "properties": {
        "name": "DEBARR & TURPIN WNW",
        "stop_id": "0373",
        "stop_code": null
      },
      "geometry": {
        "type": "Point",
        "coordinates": [
          -149.757299,
          61.209841
        ]
      }
    },
    {
      "type": "Feature",
      "properties": {
        "name": "DEBARR & EDWARD ENE",
        "stop_id": "0374",
        "stop_code": null
      },
      "geometry": {
        "type": "Point",
        "coordinates": [
          -149.763379,
          61.209834
        ]
      }
    },
    {
      "type": "Feature",
      "properties": {
        "name": "NUNAKA & DEBARR",
        "stop_id": "0375",
        "stop_code": null
      },
      "geometry": {
        "type": "Point",
        "coordinates": [
          -149.770231,
          61.209018
        ]
      }
    },
    {
      "type": "Feature",
      "properties": {
        "name": "NUNAKA & MILEY SSW",
        "stop_id": "0376",
        "stop_code": null
      },
      "geometry": {
        "type": "Point",
        "coordinates": [
          -149.770177,
          61.207347
        ]
      }
    },
    {
      "type": "Feature",
      "properties": {
        "name": "NUNAKA & PERRY SSW",
        "stop_id": "0377",
        "stop_code": null
      },
      "geometry": {
        "type": "Point",
        "coordinates": [
          -149.771173,
          61.205735
        ]
      }
    },
    {
      "type": "Feature",
      "properties": {
        "name": "NUNAKA & STERLING NNW",
        "stop_id": "0378",
        "stop_code": null
      },
      "geometry": {
        "type": "Point",
        "coordinates": [
          -149.773246,
          61.204049
        ]
      }
    },
    {
      "type": "Feature",
      "properties": {
        "name": "STERLING & TWINING ENE",
        "stop_id": "0379",
        "stop_code": null
      },
      "geometry": {
        "type": "Point",
        "coordinates": [
          -149.776161,
          61.204593
        ]
      }
    },
    {
      "type": "Feature",
      "properties": {
        "name": "PENN & RADCLIFFE NNW",
        "stop_id": "0380",
        "stop_code": null
      },
      "geometry": {
        "type": "Point",
        "coordinates": [
          -149.776316,
          61.202205
        ]
      }
    },
    {
      "type": "Feature",
      "properties": {
        "name": "PEMBROKE & COLLEGE SSW",
        "stop_id": "0381",
        "stop_code": null
      },
      "geometry": {
        "type": "Point",
        "coordinates": [
          -149.778044,
          61.2
        ]
      }
    },
    {
      "type": "Feature",
      "properties": {
        "name": "BONIFACE & 24TH AVENUE SSW",
        "stop_id": "0382",
        "stop_code": null
      },
      "geometry": {
        "type": "Point",
        "coordinates": [
          -149.778649,
          61.198325
        ]
      }
    },
    {
      "type": "Feature",
      "properties": {
        "name": "NORTHERN LIGHTS & BONIFACE",
        "stop_id": "0385",
        "stop_code": null
      },
      "geometry": {
        "type": "Point",
        "coordinates": [
          -149.780008,
          61.195391
        ]
      }
    },
    {
      "type": "Feature",
      "properties": {
        "name": "NORTHERN LIGHTS & WESLEYAN WNW",
        "stop_id": "0386",
        "stop_code": null
      },
      "geometry": {
        "type": "Point",
        "coordinates": [
          -149.789999,
          61.195305
        ]
      }
    },
    {
      "type": "Feature",
      "properties": {
        "name": "NORTHERN LIGHTS & EAST HS ENE",
        "stop_id": "0387",
        "stop_code": null
      },
      "geometry": {
        "type": "Point",
        "coordinates": [
          -149.801399,
          61.199066
        ]
      }
    },
    {
      "type": "Feature",
      "properties": {
        "name": "NORTHERN LIGHTS & BRAGAW",
        "stop_id": "0388",
        "stop_code": null
      },
      "geometry": {
        "type": "Point",
        "coordinates": [
          -149.809731,
          61.199085
        ]
      }
    },
    {
      "type": "Feature",
      "properties": {
        "name": "UAA DRIVE & NORTHERN LIGHTS SSW",
        "stop_id": "0391",
        "stop_code": null
      },
      "geometry": {
        "type": "Point",
        "coordinates": [
          -149.827138,
          61.195275
        ]
      }
    },
    {
      "type": "Feature",
      "properties": {
        "name": "UAA DRIVE & PROVIDENCE NNW",
        "stop_id": "0392",
        "stop_code": null
      },
      "geometry": {
        "type": "Point",
        "coordinates": [
          -149.823309,
          61.19092
        ]
      }
    },
    {
      "type": "Feature",
      "properties": {
        "name": "LAKE OTIS & PROVIDENCE NNE",
        "stop_id": "0396",
        "stop_code": null
      },
      "geometry": {
        "type": "Point",
        "coordinates": [
          -149.83798,
          61.1887
        ]
      }
    },
    {
      "type": "Feature",
      "properties": {
        "name": "LAKE OTIS & CORNELL SSE",
        "stop_id": "0397",
        "stop_code": null
      },
      "geometry": {
        "type": "Point",
        "coordinates": [
          -149.83806,
          61.19139
        ]
      }
    },
    {
      "type": "Feature",
      "properties": {
        "name": "NORTHERN LIGHTS & LAKE OTIS WNW",
        "stop_id": "0398",
        "stop_code": null
      },
      "geometry": {
        "type": "Point",
        "coordinates": [
          -149.839334,
          61.195529
        ]
      }
    },
    {
      "type": "Feature",
      "properties": {
        "name": "NORTHERN LIGHTS & MAPLEWOOD WNW",
        "stop_id": "0399",
        "stop_code": null
      },
      "geometry": {
        "type": "Point",
        "coordinates": [
          -149.846751,
          61.195527
        ]
      }
    },
    {
      "type": "Feature",
      "properties": {
        "name": "NORTHERN LIGHTS & GLENWOOD WNW",
        "stop_id": "0400",
        "stop_code": null
      },
      "geometry": {
        "type": "Point",
        "coordinates": [
          -149.853672,
          61.195574
        ]
      }
    },
    {
      "type": "Feature",
      "properties": {
        "name": "NORTHERN LIGHTS & LATOUCHE WNW",
        "stop_id": "0401",
        "stop_code": null
      },
      "geometry": {
        "type": "Point",
        "coordinates": [
          -149.861679,
          61.195309
        ]
      }
    },
    {
      "type": "Feature",
      "properties": {
        "name": "NORTHERN LIGHTS & GAMBELL ENE",
        "stop_id": "0402",
        "stop_code": null
      },
      "geometry": {
        "type": "Point",
        "coordinates": [
          -149.869878,
          61.195373
        ]
      }
    },
    {
      "type": "Feature",
      "properties": {
        "name": "NORTHERN LIGHTS & DENALI ENE",
        "stop_id": "0403",
        "stop_code": null
      },
      "geometry": {
        "type": "Point",
        "coordinates": [
          -149.875965,
          61.19537
        ]
      }
    },
    {
      "type": "Feature",
      "properties": {
        "name": "NORTHERN LIGHTS & CORDOVA WNW",
        "stop_id": "0404",
        "stop_code": null
      },
      "geometry": {
        "type": "Point",
        "coordinates": [
          -149.879239,
          61.195355
        ]
      }
    },
    {
      "type": "Feature",
      "properties": {
        "name": "NORTHERN LIGHTS & A STREET WNW",
        "stop_id": "0405",
        "stop_code": null
      },
      "geometry": {
        "type": "Point",
        "coordinates": [
          -149.883969,
          61.195352
        ]
      }
    },
    {
      "type": "Feature",
      "properties": {
        "name": "NORTHERN LIGHTS & C ST",
        "stop_id": "0406",
        "stop_code": null
      },
      "geometry": {
        "type": "Point",
        "coordinates": [
          -149.8875,
          61.195404
        ]
      }
    },
    {
      "type": "Feature",
      "properties": {
        "name": "NORTHERN LIGHTS & BERING ENE",
        "stop_id": "0407",
        "stop_code": null
      },
      "geometry": {
        "type": "Point",
        "coordinates": [
          -149.895129,
          61.195371
        ]
      }
    },
    {
      "type": "Feature",
      "properties": {
        "name": "NORTHERN LIGHTS & ARCTIC WNW",
        "stop_id": "0408",
        "stop_code": null
      },
      "geometry": {
        "type": "Point",
        "coordinates": [
          -149.898736,
          61.19535
        ]
      }
    },
    {
      "type": "Feature",
      "properties": {
        "name": "NORTHERN LIGHTS & SPENARD WNW",
        "stop_id": "0409",
        "stop_code": null
      },
      "geometry": {
        "type": "Point",
        "coordinates": [
          -149.906827,
          61.195379
        ]
      }
    },
    {
      "type": "Feature",
      "properties": {
        "name": "NORTHERN LIGHTS & MINNESOTA ENE",
        "stop_id": "0410",
        "stop_code": null
      },
      "geometry": {
        "type": "Point",
        "coordinates": [
          -149.9106,
          61.195367
        ]
      }
    },
    {
      "type": "Feature",
      "properties": {
        "name": "MINNESOTA & 26TH AVENUE NNE",
        "stop_id": "0411",
        "stop_code": null
      },
      "geometry": {
        "type": "Point",
        "coordinates": [
          -149.912798,
          61.197666
        ]
      }
    },
    {
      "type": "Feature",
      "properties": {
        "name": "9TH AVENUE & INGRA ESE",
        "stop_id": "0423",
        "stop_code": null
      },
      "geometry": {
        "type": "Point",
        "coordinates": [
          -149.865558,
          61.213601
        ]
      }
    },
    {
      "type": "Feature",
      "properties": {
        "name": "9TH AVENUE & KARLUK ESE",
        "stop_id": "0424",
        "stop_code": null
      },
      "geometry": {
        "type": "Point",
        "coordinates": [
          -149.861596,
          61.213578
        ]
      }
    },
    {
      "type": "Feature",
      "properties": {
        "name": "LATOUCHE & 10TH AVENUE SSW",
        "stop_id": "0425",
        "stop_code": null
      },
      "geometry": {
        "type": "Point",
        "coordinates": [
          -149.860969,
          61.212475
        ]
      }
    },
    {
      "type": "Feature",
      "properties": {
        "name": "MEDFRA & 12TH AVENUE SSW",
        "stop_id": "0426",
        "stop_code": null
      },
      "geometry": {
        "type": "Point",
        "coordinates": [
          -149.858863,
          61.210393
        ]
      }
    },
    {
      "type": "Feature",
      "properties": {
        "name": "MEDFRA & 14TH AVENUE NNW",
        "stop_id": "0427",
        "stop_code": null
      },
      "geometry": {
        "type": "Point",
        "coordinates": [
          -149.858905,
          61.208837
        ]
      }
    },
    {
      "type": "Feature",
      "properties": {
        "name": "CHUGACH VIEW",
        "stop_id": "0429",
        "stop_code": null
      },
      "geometry": {
        "type": "Point",
        "coordinates": [
          -149.857968,
          61.204811
        ]
      }
    },
    {
      "type": "Feature",
      "properties": {
        "name": "15TH AVENUE & MEDFRA ESE",
        "stop_id": "0434",
        "stop_code": null
      },
      "geometry": {
        "type": "Point",
        "coordinates": [
          -149.858185,
          61.207575
        ]
      }
    },
    {
      "type": "Feature",
      "properties": {
        "name": "DEBARR & CHARTER CIR WSW",
        "stop_id": "0437",
        "stop_code": null
      },
      "geometry": {
        "type": "Point",
        "coordinates": [
          -149.835445,
          61.207751
        ]
      }
    },
    {
      "type": "Feature",
      "properties": {
        "name": "ALASKA REGIONAL HOSPITAL",
        "stop_id": "0438",
        "stop_code": null
      },
      "geometry": {
        "type": "Point",
        "coordinates": [
          -149.826403,
          61.210158
        ]
      }
    },
    {
      "type": "Feature",
      "properties": {
        "name": "PENLAND PKWY & PAUL LALONE ESE",
        "stop_id": "0441",
        "stop_code": null
      },
      "geometry": {
        "type": "Point",
        "coordinates": [
          -149.820791,
          61.215448
        ]
      }
    },
    {
      "type": "Feature",
      "properties": {
        "name": "PENLAND PKWY & KIDS CT ESE",
        "stop_id": "0442",
        "stop_code": null
      },
      "geometry": {
        "type": "Point",
        "coordinates": [
          -149.817183,
          61.215555
        ]
      }
    },
    {
      "type": "Feature",
      "properties": {
        "name": "PENLAND & NORTHWAY",
        "stop_id": "0443",
        "stop_code": null
      },
      "geometry": {
        "type": "Point",
        "coordinates": [
          -149.812121,
          61.215805
        ]
      }
    },
    {
      "type": "Feature",
      "properties": {
        "name": "BRAGAW & 9TH AVENUE SSW",
        "stop_id": "0445",
        "stop_code": null
      },
      "geometry": {
        "type": "Point",
        "coordinates": [
          -149.808459,
          61.213638
        ]
      }
    },
    {
      "type": "Feature",
      "properties": {
        "name": "BRAGAW & SAN JEROMINO NNW",
        "stop_id": "0446",
        "stop_code": null
      },
      "geometry": {
        "type": "Point",
        "coordinates": [
          -149.808463,
          61.211849
        ]
      }
    },
    {
      "type": "Feature",
      "properties": {
        "name": "DEBARR & BRAGAW ESE",
        "stop_id": "0447",
        "stop_code": null
      },
      "geometry": {
        "type": "Point",
        "coordinates": [
          -149.807229,
          61.209575
        ]
      }
    },
    {
      "type": "Feature",
      "properties": {
        "name": "DEBARR & HOYT ESE",
        "stop_id": "0448",
        "stop_code": null
      },
      "geometry": {
        "type": "Point",
        "coordinates": [
          -149.799486,
          61.209582
        ]
      }
    },
    {
      "type": "Feature",
      "properties": {
        "name": "DEBARR & PINE WSW",
        "stop_id": "0449",
        "stop_code": null
      },
      "geometry": {
        "type": "Point",
        "coordinates": [
          -149.793936,
          61.209584
        ]
      }
    },
    {
      "type": "Feature",
      "properties": {
        "name": "DEBARR & L SELKREGG WSW",
        "stop_id": "0450",
        "stop_code": null
      },
      "geometry": {
        "type": "Point",
        "coordinates": [
          -149.786848,
          61.209583
        ]
      }
    },
    {
      "type": "Feature",
      "properties": {
        "name": "DEBARR & BONIFACE WSW",
        "stop_id": "0451",
        "stop_code": null
      },
      "geometry": {
        "type": "Point",
        "coordinates": [
          -149.779258,
          61.209648
        ]
      }
    },
    {
      "type": "Feature",
      "properties": {
        "name": "DEBARR & BONIFACE ESE",
        "stop_id": "0452",
        "stop_code": null
      },
      "geometry": {
        "type": "Point",
        "coordinates": [
          -149.775916,
          61.209635
        ]
      }
    },
    {
      "type": "Feature",
      "properties": {
        "name": "DEBARR & BUCKNER ESE",
        "stop_id": "0453",
        "stop_code": null
      },
      "geometry": {
        "type": "Point",
        "coordinates": [
          -149.770823,
          61.20965
        ]
      }
    },
    {
      "type": "Feature",
      "properties": {
        "name": "DEBARR & ATKINSON ESE",
        "stop_id": "0454",
        "stop_code": null
      },
      "geometry": {
        "type": "Point",
        "coordinates": [
          -149.766195,
          61.209648
        ]
      }
    },
    {
      "type": "Feature",
      "properties": {
        "name": "BEAVER & DEBARR SSW",
        "stop_id": "0455",
        "stop_code": null
      },
      "geometry": {
        "type": "Point",
        "coordinates": [
          -149.762601,
          61.208796
        ]
      }
    },
    {
      "type": "Feature",
      "properties": {
        "name": "BEAVER & 16TH AVENUE SSW",
        "stop_id": "0456",
        "stop_code": null
      },
      "geometry": {
        "type": "Point",
        "coordinates": [
          -149.762543,
          61.205681
        ]
      }
    },
    {
      "type": "Feature",
      "properties": {
        "name": "BEAVER & CHENEY LAKE W",
        "stop_id": "0457",
        "stop_code": null
      },
      "geometry": {
        "type": "Point",
        "coordinates": [
          -149.762553,
          61.202156
        ]
      }
    },
    {
      "type": "Feature",
      "properties": {
        "name": "BAXTER & COLGATE SSW",
        "stop_id": "0458",
        "stop_code": null
      },
      "geometry": {
        "type": "Point",
        "coordinates": [
          -149.763508,
          61.198891
        ]
      }
    },
    {
      "type": "Feature",
      "properties": {
        "name": "BAXTER & CAMROSE SSW",
        "stop_id": "0459",
        "stop_code": null
      },
      "geometry": {
        "type": "Point",
        "coordinates": [
          -149.763551,
          61.196326
        ]
      }
    },
    {
      "type": "Feature",
      "properties": {
        "name": "BAXTER & NORTHERN LIGHTS",
        "stop_id": "0460",
        "stop_code": null
      },
      "geometry": {
        "type": "Point",
        "coordinates": [
          -149.763504,
          61.194653
        ]
      }
    },
    {
      "type": "Feature",
      "properties": {
        "name": "BAXTER & BAXTER ELEM WEST",
        "stop_id": "0461",
        "stop_code": null
      },
      "geometry": {
        "type": "Point",
        "coordinates": [
          -149.763488,
          61.193201
        ]
      }
    },
    {
      "type": "Feature",
      "properties": {
        "name": "BAXTER & 32ND AVENUE SSW",
        "stop_id": "0462",
        "stop_code": null
      },
      "geometry": {
        "type": "Point",
        "coordinates": [
          -149.763472,
          61.191352
        ]
      }
    },
    {
      "type": "Feature",
      "properties": {
        "name": "BAXTER & 35TH AVENUE SSW",
        "stop_id": "0463",
        "stop_code": null
      },
      "geometry": {
        "type": "Point",
        "coordinates": [
          -149.763469,
          61.18975
        ]
      }
    },
    {
      "type": "Feature",
      "properties": {
        "name": "BAXTER & 41ST AVENUE NNE",
        "stop_id": "0464",
        "stop_code": null
      },
      "geometry": {
        "type": "Point",
        "coordinates": [
          -149.763225,
          61.183855
        ]
      }
    },
    {
      "type": "Feature",
      "properties": {
        "name": "BAXTER & 41ST AVENUE NNW",
        "stop_id": "0465",
        "stop_code": null
      },
      "geometry": {
        "type": "Point",
        "coordinates": [
          -149.763516,
          61.18369
        ]
      }
    },
    {
      "type": "Feature",
      "properties": {
        "name": "TUDOR & BAXTER WNW",
        "stop_id": "0467",
        "stop_code": null
      },
      "geometry": {
        "type": "Point",
        "coordinates": [
          -149.764611,
          61.18092
        ]
      }
    },
    {
      "type": "Feature",
      "properties": {
        "name": "PROVIDENCE & ELMORE WSW",
        "stop_id": "0479",
        "stop_code": null
      },
      "geometry": {
        "type": "Point",
        "coordinates": [
          -149.810993,
          61.188673
        ]
      }
    },
    {
      "type": "Feature",
      "properties": {
        "name": "BAXTER & TUDOR NNE",
        "stop_id": "0489",
        "stop_code": null
      },
      "geometry": {
        "type": "Point",
        "coordinates": [
          -149.763267,
          61.181325
        ]
      }
    },
    {
      "type": "Feature",
      "properties": {
        "name": "BAXTER & HAMPTON SSE",
        "stop_id": "0490",
        "stop_code": null
      },
      "geometry": {
        "type": "Point",
        "coordinates": [
          -149.763285,
          61.185699
        ]
      }
    },
    {
      "type": "Feature",
      "properties": {
        "name": "BAXTER & VILLAGE NNE",
        "stop_id": "0491",
        "stop_code": null
      },
      "geometry": {
        "type": "Point",
        "coordinates": [
          -149.763296,
          61.188302
        ]
      }
    },
    {
      "type": "Feature",
      "properties": {
        "name": "BAXTER & 35TH AVENUE SSE",
        "stop_id": "0492",
        "stop_code": null
      },
      "geometry": {
        "type": "Point",
        "coordinates": [
          -149.763281,
          61.189606
        ]
      }
    },
    {
      "type": "Feature",
      "properties": {
        "name": "BAXTER & 32ND AVENUE SSE",
        "stop_id": "0493",
        "stop_code": null
      },
      "geometry": {
        "type": "Point",
        "coordinates": [
          -149.763285,
          61.191899
        ]
      }
    },
    {
      "type": "Feature",
      "properties": {
        "name": "BAXTER & BAXTER ELEM EAST",
        "stop_id": "0494",
        "stop_code": null
      },
      "geometry": {
        "type": "Point",
        "coordinates": [
          -149.763275,
          61.193903
        ]
      }
    },
    {
      "type": "Feature",
      "properties": {
        "name": "BAXTER & NORTHERN LIGHTS",
        "stop_id": "0495",
        "stop_code": null
      },
      "geometry": {
        "type": "Point",
        "coordinates": [
          -149.763246,
          61.195865
        ]
      }
    },
    {
      "type": "Feature",
      "properties": {
        "name": "BAXTER & PROSPERITY NNE",
        "stop_id": "0496",
        "stop_code": null
      },
      "geometry": {
        "type": "Point",
        "coordinates": [
          -149.763326,
          61.199555
        ]
      }
    },
    {
      "type": "Feature",
      "properties": {
        "name": "BEAVER & 1925 BEAVER PL EAST",
        "stop_id": "0497",
        "stop_code": null
      },
      "geometry": {
        "type": "Point",
        "coordinates": [
          -149.762326,
          61.203001
        ]
      }
    },
    {
      "type": "Feature",
      "properties": {
        "name": "BEAVER & 16TH AVENUE SSE",
        "stop_id": "0498",
        "stop_code": null
      },
      "geometry": {
        "type": "Point",
        "coordinates": [
          -149.762356,
          61.205915
        ]
      }
    },
    {
      "type": "Feature",
      "properties": {
        "name": "BEAVER & DEBARR SSE",
        "stop_id": "0499",
        "stop_code": null
      },
      "geometry": {
        "type": "Point",
        "coordinates": [
          -149.762333,
          61.208966
        ]
      }
    },
    {
      "type": "Feature",
      "properties": {
        "name": "DEBARR & NUNAKA ENE",
        "stop_id": "0501",
        "stop_code": null
      },
      "geometry": {
        "type": "Point",
        "coordinates": [
          -149.768728,
          61.209848
        ]
      }
    },
    {
      "type": "Feature",
      "properties": {
        "name": "DEBARR & BONIFACE ENE",
        "stop_id": "0502",
        "stop_code": null
      },
      "geometry": {
        "type": "Point",
        "coordinates": [
          -149.774826,
          61.209805
        ]
      }
    },
    {
      "type": "Feature",
      "properties": {
        "name": "DEBARR & BONIFACE WNW",
        "stop_id": "0503",
        "stop_code": null
      },
      "geometry": {
        "type": "Point",
        "coordinates": [
          -149.779749,
          61.209853
        ]
      }
    },
    {
      "type": "Feature",
      "properties": {
        "name": "DEBARR & L SELKREGG WNW",
        "stop_id": "0504",
        "stop_code": null
      },
      "geometry": {
        "type": "Point",
        "coordinates": [
          -149.786999,
          61.209823
        ]
      }
    },
    {
      "type": "Feature",
      "properties": {
        "name": "DEBARR & PINE WNW",
        "stop_id": "0505",
        "stop_code": null
      },
      "geometry": {
        "type": "Point",
        "coordinates": [
          -149.79462,
          61.209827
        ]
      }
    },
    {
      "type": "Feature",
      "properties": {
        "name": "DEBARR & HOYT WNW",
        "stop_id": "0506",
        "stop_code": null
      },
      "geometry": {
        "type": "Point",
        "coordinates": [
          -149.800893,
          61.209819
        ]
      }
    },
    {
      "type": "Feature",
      "properties": {
        "name": "DEBARR & BRAGAW ENE",
        "stop_id": "0507",
        "stop_code": null
      },
      "geometry": {
        "type": "Point",
        "coordinates": [
          -149.805476,
          61.209818
        ]
      }
    },
    {
      "type": "Feature",
      "properties": {
        "name": "BRAGAW & DEBARR NNE",
        "stop_id": "0508",
        "stop_code": null
      },
      "geometry": {
        "type": "Point",
        "coordinates": [
          -149.80811,
          61.210244
        ]
      }
    },
    {
      "type": "Feature",
      "properties": {
        "name": "BRAGAW & SAN CLEMNTSN NNE",
        "stop_id": "0509",
        "stop_code": null
      },
      "geometry": {
        "type": "Point",
        "coordinates": [
          -149.808149,
          61.213233
        ]
      }
    },
    {
      "type": "Feature",
      "properties": {
        "name": "PENLAND PKWY & BRAGAW WNW",
        "stop_id": "0511",
        "stop_code": null
      },
      "geometry": {
        "type": "Point",
        "coordinates": [
          -149.810846,
          61.216044
        ]
      }
    },
    {
      "type": "Feature",
      "properties": {
        "name": "PENLAND PKWY & KIDS CT WNW",
        "stop_id": "0513",
        "stop_code": null
      },
      "geometry": {
        "type": "Point",
        "coordinates": [
          -149.818406,
          61.215584
        ]
      }
    },
    {
      "type": "Feature",
      "properties": {
        "name": "PENLAND PKWY & PAUL LALONE N",
        "stop_id": "0514",
        "stop_code": null
      },
      "geometry": {
        "type": "Point",
        "coordinates": [
          -149.821331,
          61.215543
        ]
      }
    },
    {
      "type": "Feature",
      "properties": {
        "name": "AIRPORT HGTS & PENLAND SSW",
        "stop_id": "0515",
        "stop_code": null
      },
      "geometry": {
        "type": "Point",
        "coordinates": [
          -149.824577,
          61.215012
        ]
      }
    },
    {
      "type": "Feature",
      "properties": {
        "name": "ALASKA REGIONAL HOSPITAL",
        "stop_id": "0517",
        "stop_code": null
      },
      "geometry": {
        "type": "Point",
        "coordinates": [
          -149.82622,
          61.210218
        ]
      }
    },
    {
      "type": "Feature",
      "properties": {
        "name": "DEBARR & ALASKA REGIONAL DR WNW",
        "stop_id": "0518",
        "stop_code": null
      },
      "geometry": {
        "type": "Point",
        "coordinates": [
          -149.831826,
          61.209446
        ]
      }
    },
    {
      "type": "Feature",
      "properties": {
        "name": "15TH AVENUE & LAKE OTIS WNW",
        "stop_id": "0519",
        "stop_code": null
      },
      "geometry": {
        "type": "Point",
        "coordinates": [
          -149.83964,
          61.207825
        ]
      }
    },
    {
      "type": "Feature",
      "properties": {
        "name": "MEDFRA & 16TH AVENUE SSW",
        "stop_id": "0522",
        "stop_code": null
      },
      "geometry": {
        "type": "Point",
        "coordinates": [
          -149.858704,
          61.205965
        ]
      }
    },
    {
      "type": "Feature",
      "properties": {
        "name": "ORCA & 19TH AVENUE NNW",
        "stop_id": "0524",
        "stop_code": null
      },
      "geometry": {
        "type": "Point",
        "coordinates": [
          -149.855264,
          61.204077
        ]
      }
    },
    {
      "type": "Feature",
      "properties": {
        "name": "CHUGACH MANOR",
        "stop_id": "0525",
        "stop_code": null
      },
      "geometry": {
        "type": "Point",
        "coordinates": [
          -149.85886,
          61.203668
        ]
      }
    },
    {
      "type": "Feature",
      "properties": {
        "name": "KARLUK & 19TH AVENUE NNE",
        "stop_id": "0526",
        "stop_code": null
      },
      "geometry": {
        "type": "Point",
        "coordinates": [
          -149.861335,
          61.204305
        ]
      }
    },
    {
      "type": "Feature",
      "properties": {
        "name": "MEDFRA & 16TH AVENUE NNE",
        "stop_id": "0527",
        "stop_code": null
      },
      "geometry": {
        "type": "Point",
        "coordinates": [
          -149.858703,
          61.206623
        ]
      }
    },
    {
      "type": "Feature",
      "properties": {
        "name": "MEDFRA & 14TH AVENUE SSE",
        "stop_id": "0528",
        "stop_code": null
      },
      "geometry": {
        "type": "Point",
        "coordinates": [
          -149.858674,
          61.208605
        ]
      }
    },
    {
      "type": "Feature",
      "properties": {
        "name": "MEDFRA & 12TH AVENUE NNE",
        "stop_id": "0529",
        "stop_code": null
      },
      "geometry": {
        "type": "Point",
        "coordinates": [
          -149.858688,
          61.210945
        ]
      }
    },
    {
      "type": "Feature",
      "properties": {
        "name": "LATOUCHE & 10TH AVENUE NNE",
        "stop_id": "0530",
        "stop_code": null
      },
      "geometry": {
        "type": "Point",
        "coordinates": [
          -149.860645,
          61.212847
        ]
      }
    },
    {
      "type": "Feature",
      "properties": {
        "name": "9TH AVENUE & KARLUK ENE",
        "stop_id": "0531",
        "stop_code": null
      },
      "geometry": {
        "type": "Point",
        "coordinates": [
          -149.861644,
          61.21369
        ]
      }
    },
    {
      "type": "Feature",
      "properties": {
        "name": "9TH AVENUE & INGRA WNW",
        "stop_id": "0532",
        "stop_code": null
      },
      "geometry": {
        "type": "Point",
        "coordinates": [
          -149.867725,
          61.213715
        ]
      }
    },
    {
      "type": "Feature",
      "properties": {
        "name": "CORDOVA & 8TH AVENUE SSE",
        "stop_id": "0535",
        "stop_code": null
      },
      "geometry": {
        "type": "Point",
        "coordinates": [
          -149.879049,
          61.21454
        ]
      }
    },
    {
      "type": "Feature",
      "properties": {
        "name": "CORDOVA & 10TH AVENUE SSW",
        "stop_id": "0549",
        "stop_code": null
      },
      "geometry": {
        "type": "Point",
        "coordinates": [
          -149.879317,
          61.212347
        ]
      }
    },
    {
      "type": "Feature",
      "properties": {
        "name": "CORDOVA & 11TH AVENUE SSW",
        "stop_id": "0550",
        "stop_code": null
      },
      "geometry": {
        "type": "Point",
        "coordinates": [
          -149.879329,
          61.211371
        ]
      }
    },
    {
      "type": "Feature",
      "properties": {
        "name": "13TH AVENUE & CORDOVA ESE",
        "stop_id": "0551",
        "stop_code": null
      },
      "geometry": {
        "type": "Point",
        "coordinates": [
          -149.878547,
          61.209611
        ]
      }
    },
    {
      "type": "Feature",
      "properties": {
        "name": "13TH AVENUE & EAGLE ESE",
        "stop_id": "0552",
        "stop_code": null
      },
      "geometry": {
        "type": "Point",
        "coordinates": [
          -149.87439,
          61.20961
        ]
      }
    },
    {
      "type": "Feature",
      "properties": {
        "name": "13TH & GAMBELL",
        "stop_id": "0553",
        "stop_code": null
      },
      "geometry": {
        "type": "Point",
        "coordinates": [
          -149.870094,
          61.209604
        ]
      }
    },
    {
      "type": "Feature",
      "properties": {
        "name": "15TH AVENUE & GAMBELL ESE",
        "stop_id": "0554",
        "stop_code": null
      },
      "geometry": {
        "type": "Point",
        "coordinates": [
          -149.869658,
          61.207584
        ]
      }
    },
    {
      "type": "Feature",
      "properties": {
        "name": "15TH AVENUE & INGRA ESE",
        "stop_id": "0555",
        "stop_code": null
      },
      "geometry": {
        "type": "Point",
        "coordinates": [
          -149.865505,
          61.207623
        ]
      }
    },
    {
      "type": "Feature",
      "properties": {
        "name": "15TH AVENUE & KARLUK ESE",
        "stop_id": "0556",
        "stop_code": null
      },
      "geometry": {
        "type": "Point",
        "coordinates": [
          -149.862068,
          61.207618
        ]
      }
    },
    {
      "type": "Feature",
      "properties": {
        "name": "15TH AVENUE & ORCA ESE",
        "stop_id": "0558",
        "stop_code": null
      },
      "geometry": {
        "type": "Point",
        "coordinates": [
          -149.854073,
          61.207589
        ]
      }
    },
    {
      "type": "Feature",
      "properties": {
        "name": "15TH AVENUE & SITKA ESE",
        "stop_id": "0559",
        "stop_code": null
      },
      "geometry": {
        "type": "Point",
        "coordinates": [
          -149.844498,
          61.207631
        ]
      }
    },
    {
      "type": "Feature",
      "properties": {
        "name": "SUNRISE & 18TH AVENUE SSW",
        "stop_id": "0564",
        "stop_code": null
      },
      "geometry": {
        "type": "Point",
        "coordinates": [
          -149.82642,
          61.203896
        ]
      }
    },
    {
      "type": "Feature",
      "properties": {
        "name": "SUNRISE & 20TH AVENUE NNW",
        "stop_id": "0565",
        "stop_code": null
      },
      "geometry": {
        "type": "Point",
        "coordinates": [
          -149.827029,
          61.202549
        ]
      }
    },
    {
      "type": "Feature",
      "properties": {
        "name": "20TH AVENUE & ALDER WNW",
        "stop_id": "0566",
        "stop_code": null
      },
      "geometry": {
        "type": "Point",
        "coordinates": [
          -149.829726,
          61.202562
        ]
      }
    },
    {
      "type": "Feature",
      "properties": {
        "name": "20TH AVENUE & LOGAN WNW",
        "stop_id": "0567",
        "stop_code": null
      },
      "geometry": {
        "type": "Point",
        "coordinates": [
          -149.833829,
          61.202561
        ]
      }
    },
    {
      "type": "Feature",
      "properties": {
        "name": "20TH AVENUE & TALKEETNA WNW",
        "stop_id": "0568",
        "stop_code": null
      },
      "geometry": {
        "type": "Point",
        "coordinates": [
          -149.837104,
          61.202478
        ]
      }
    },
    {
      "type": "Feature",
      "properties": {
        "name": "LAKE OTIS & MAPLE SSW",
        "stop_id": "0569",
        "stop_code": null
      },
      "geometry": {
        "type": "Point",
        "coordinates": [
          -149.838436,
          61.19794
        ]
      }
    },
    {
      "type": "Feature",
      "properties": {
        "name": "PROVIDENCE & PROVIDENCE HOSPITAL",
        "stop_id": "0575",
        "stop_code": null
      },
      "geometry": {
        "type": "Point",
        "coordinates": [
          -149.816965,
          61.189759
        ]
      }
    },
    {
      "type": "Feature",
      "properties": {
        "name": "ELMORE & SHARON GAGNON SSW",
        "stop_id": "0577",
        "stop_code": null
      },