{
  "type": "FeatureCollection",
  "features": [
    {
      "type": "Feature",
      "properties": {
        "stop_id": 3,
        "stop_code": 3,
        "name": "C STREET and 7TH AVENUE SSW"
      },
      "geometry": {
        "type": "Point",
        "coordinates": [
          -149.887389,
          61.215111
        ]
      }
    },
    {
      "type": "Feature",
      "properties": {
        "stop_id": 4,
        "stop_code": 4,
        "name": "C STREET and 10TH AVENUE SSW"
      },
      "geometry": {
        "type": "Point",
        "coordinates": [
          -149.887517,
          61.212406
        ]
      }
    },
    {
      "type": "Feature",
      "properties": {
        "stop_id": 5,
        "stop_code": 5,
        "name": "C STREET and 12TH AVENUE SSW"
      },
      "geometry": {
        "type": "Point",
        "coordinates": [
          -149.887483,
          61.210296
        ]
      }
    },
    {
      "type": "Feature",
      "properties": {
        "stop_id": 6,
        "stop_code": 6,
        "name": "C STREET and 14TH AVENUE NNW"
      },
      "geometry": {
        "type": "Point",
        "coordinates": [
          -149.887493,
          61.208679
        ]
      }
    },
    {
      "type": "Feature",
      "properties": {
        "stop_id": 7,
        "stop_code": 7,
        "name": "C STREET and 16TH AVENUE SSW"
      },
      "geometry": {
        "type": "Point",
        "coordinates": [
          -149.887535,
          61.205769
        ]
      }
    },
    {
      "type": "Feature",
      "properties": {
        "stop_id": 8,
        "stop_code": 8,
        "name": "C STREET and 19TH AVENUE NNW"
      },
      "geometry": {
        "type": "Point",
        "coordinates": [
          -149.887627,
          61.203688
        ]
      }
    },
    {
      "type": "Feature",
      "properties": {
        "stop_id": 9,
        "stop_code": 9,
        "name": "C STREET and 22ND AVENUE NNW"
      },
      "geometry": {
        "type": "Point",
        "coordinates": [
          -149.887529,
          61.200839
        ]
      }
    },
    {
      "type": "Feature",
      "properties": {
        "stop_id": 10,
        "stop_code": 10,
        "name": "C STREET and FIREWEED SSW"
      },
      "geometry": {
        "type": "Point",
        "coordinates": [
          -149.88703,
          61.197746
        ]
      }
    },
    {
      "type": "Feature",
      "properties": {
        "stop_id": 11,
        "stop_code": 11,
        "name": "C STREET and BENSON NNW"
      },
      "geometry": {
        "type": "Point",
        "coordinates": [
          -149.886782,
          61.194451
        ]
      }
    },
    {
      "type": "Feature",
      "properties": {
        "stop_id": 12,
        "stop_code": 12,
        "name": "C STREET and 31ST AVENUE NNW"
      },
      "geometry": {
        "type": "Point",
        "coordinates": [
          -149.886782,
          61.192709
        ]
      }
    },
    {
      "type": "Feature",
      "properties": {
        "stop_id": 14,
        "stop_code": 14,
        "name": "36TH AVENUE and C STREET ESE"
      },
      "geometry": {
        "type": "Point",
        "coordinates": [
          -149.885213,
          61.187996
        ]
      }
    },
    {
      "type": "Feature",
      "properties": {
        "stop_id": 15,
        "stop_code": 15,
        "name": "36TH AVENUE and A STREET ESE"
      },
      "geometry": {
        "type": "Point",
        "coordinates": [
          -149.88181,
          61.187958
        ]
      }
    },
    {
      "type": "Feature",
      "properties": {
        "stop_id": 16,
        "stop_code": 16,
        "name": "36TH AVENUE and DENALI WSW"
      },
      "geometry": {
        "type": "Point",
        "coordinates": [
          -149.877381,
          61.187984
        ]
      }
    },
    {
      "type": "Feature",
      "properties": {
        "stop_id": 17,
        "stop_code": 17,
        "name": "36TH AVENUE and OLD SEWARD WSW"
      },
      "geometry": {
        "type": "Point",
        "coordinates": [
          -149.869001,
          61.187998
        ]
      }
    },
    {
      "type": "Feature",
      "properties": {
        "stop_id": 18,
        "stop_code": 18,
        "name": "36TH AVENUE and NEW SEWARD ESE"
      },
      "geometry": {
        "type": "Point",
        "coordinates": [
          -149.862833,
          61.187973
        ]
      }
    },
    {
      "type": "Feature",
      "properties": {
        "stop_id": 19,
        "stop_code": 19,
        "name": "36TH AVENUE and LATOUCHE WSW"
      },
      "geometry": {
        "type": "Point",
        "coordinates": [
          -149.859445,
          61.187991
        ]
      }
    },
    {
      "type": "Feature",
      "properties": {
        "stop_id": 20,
        "stop_code": 20,
        "name": "36TH AVENUE and LOCARNO ESE"
      },
      "geometry": {
        "type": "Point",
        "coordinates": [
          -149.855386,
          61.188013
        ]
      }
    },
    {
      "type": "Feature",
      "properties": {
        "stop_id": 21,
        "stop_code": 21,
        "name": "36TH AVENUE and MACINNES ESE"
      },
      "geometry": {
        "type": "Point",
        "coordinates": [
          -149.848835,
          61.18795
        ]
      }
    },
    {
      "type": "Feature",
      "properties": {
        "stop_id": 23,
        "stop_code": 23,
        "name": "LAKE OTIS and 36TH AVENUE SSW"
      },
      "geometry": {
        "type": "Point",
        "coordinates": [
          -149.83846,
          61.187323
        ]
      }
    },
    {
      "type": "Feature",
      "properties": {
        "stop_id": 24,
        "stop_code": 24,
        "name": "LAKE OTIS and 38TH AVENUE SSW"
      },
      "geometry": {
        "type": "Point",
        "coordinates": [
          -149.83838,
          61.185757
        ]
      }
    },
    {
      "type": "Feature",
      "properties": {
        "stop_id": 25,
        "stop_code": 25,
        "name": "LAKE OTIS and 42ND AVENUE NNW"
      },
      "geometry": {
        "type": "Point",
        "coordinates": [
          -149.838371,
          61.182748
        ]
      }
    },
    {
      "type": "Feature",
      "properties": {
        "stop_id": 26,
        "stop_code": 26,
        "name": "LAKE OTIS and TUDOR SSW"
      },
      "geometry": {
        "type": "Point",
        "coordinates": [
          -149.838406,
          61.179662
        ]
      }
    },
    {
      "type": "Feature",
      "properties": {
        "stop_id": 27,
        "stop_code": 27,
        "name": "LAKE OTIS and HOMESTEAD SSW"
      },
      "geometry": {
        "type": "Point",
        "coordinates": [
          -149.838304,
          61.177118
        ]
      }
    },
    {
      "type": "Feature",
      "properties": {
        "stop_id": 28,
        "stop_code": 28,
        "name": "LAKE OTIS and WALDRON SSW"
      },
      "geometry": {
        "type": "Point",
        "coordinates": [
          -149.838436,
          61.174351
        ]
      }
    },
    {
      "type": "Feature",
      "properties": {
        "stop_id": 29,
        "stop_code": 29,
        "name": "LAKE OTIS and 54TH AVENUE SSW"
      },
      "geometry": {
        "type": "Point",
        "coordinates": [
          -149.838336,
          61.171576
        ]
      }
    },
    {
      "type": "Feature",
      "properties": {
        "stop_id": 30,
        "stop_code": 30,
        "name": "LAKE OTIS and PAGO PAGO NNW"
      },
      "geometry": {
        "type": "Point",
        "coordinates": [
          -149.838328,
          61.168868
        ]
      }
    },
    {
      "type": "Feature",
      "properties": {
        "stop_id": 31,
        "stop_code": 31,
        "name": "LAKE OTIS and DOWLING SSW"
      },
      "geometry": {
        "type": "Point",
        "coordinates": [
          -149.838429,
          61.165865
        ]
      }
    },
    {
      "type": "Feature",
      "properties": {
        "stop_id": 32,
        "stop_code": 32,
        "name": "LAKE OTIS and 63RD AVENUE SSW"
      },
      "geometry": {
        "type": "Point",
        "coordinates": [
          -149.835964,
          61.163456
        ]
      }
    },
    {
      "type": "Feature",
      "properties": {
        "stop_id": 33,
        "stop_code": 33,
        "name": "LAKE OTIS and 68TH AVENUE SSW"
      },
      "geometry": {
        "type": "Point",
        "coordinates": [
          -149.83445,
          61.158822
        ]
      }
    },
    {
      "type": "Feature",
      "properties": {
        "stop_id": 34,
        "stop_code": 34,
        "name": "LAKE OTIS and 72ND AVENUE SSW"
      },
      "geometry": {
        "type": "Point",
        "coordinates": [
          -149.83444,
          61.155016
        ]
      }
    },
    {
      "type": "Feature",
      "properties": {
        "stop_id": 35,
        "stop_code": 35,
        "name": "LAKE OTIS and LORE SSW"
      },
      "geometry": {
        "type": "Point",
        "coordinates": [
          -149.834421,
          61.151457
        ]
      }
    },
    {
      "type": "Feature",
      "properties": {
        "stop_id": 36,
        "stop_code": 36,
        "name": "LAKE OTIS and 80TH AVENUE SSW"
      },
      "geometry": {
        "type": "Point",
        "coordinates": [
          -149.834409,
          61.147558
        ]
      }
    },
    {
      "type": "Feature",
      "properties": {
        "stop_id": 37,
        "stop_code": 37,
        "name": "LAKE OTIS and 85TH AVENUE NNW"
      },
      "geometry": {
        "type": "Point",
        "coordinates": [
          -149.834352,
          61.14402
        ]
      }
    },
    {
      "type": "Feature",
      "properties": {
        "stop_id": 38,
        "stop_code": 38,
        "name": "LAKE OTIS and 88TH AVENUE SSW"
      },
      "geometry": {
        "type": "Point",
        "coordinates": [
          -149.834389,
          61.140782
        ]
      }
    },
    {
      "type": "Feature",
      "properties": {
        "stop_id": 43,
        "stop_code": 43,
        "name": "INDEPENDENCE and SENTRY NNW"
      },
      "geometry": {
        "type": "Point",
        "coordinates": [
          -149.841718,
          61.134677
        ]
      }
    },
    {
      "type": "Feature",
      "properties": {
        "stop_id": 44,
        "stop_code": 44,
        "name": "INDEPENDENCE and VANGUARD SSW"
      },
      "geometry": {
        "type": "Point",
        "coordinates": [
          -149.845513,
          61.131886
        ]
      }
    },
    {
      "type": "Feature",
      "properties": {
        "stop_id": 45,
        "stop_code": 45,
        "name": "INDEPENDENCE and COLONY SSW"
      },
      "geometry": {
        "type": "Point",
        "coordinates": [
          -149.845923,
          61.13033
        ]
      }
    },
    {
      "type": "Feature",
      "properties": {
        "stop_id": 46,
        "stop_code": 46,
        "name": "JAMESTOWN and INDEPENDENCE SSW"
      },
      "geometry": {
        "type": "Point",
        "coordinates": [
          -149.845564,
          61.128495
        ]
      }
    },
    {
      "type": "Feature",
      "properties": {
        "stop_id": 47,
        "stop_code": 47,
        "name": "JAMESTOWN and MRTHAS VNYRD NNW"
      },
      "geometry": {
        "type": "Point",
        "coordinates": [
          -149.847048,
          61.127568
        ]
      }
    },
    {
      "type": "Feature",
      "properties": {
        "stop_id": 48,
        "stop_code": 48,
        "name": "JAMESTOWN and ELCADORE SSW"
      },
      "geometry": {
        "type": "Point",
        "coordinates": [
          -149.848114,
          61.12522
        ]
      }
    },
    {
      "type": "Feature",
      "properties": {
        "stop_id": 49,
        "stop_code": 49,
        "name": "COMMODORE and ELCADORE NNW"
      },
      "geometry": {
        "type": "Point",
        "coordinates": [
          -149.851073,
          61.123773
        ]
      }
    },
    {
      "type": "Feature",
      "properties": {
        "stop_id": 50,
        "stop_code": 50,
        "name": "OMALLEY and BRAYTON WNW"
      },
      "geometry": {
        "type": "Point",
        "coordinates": [
          -149.856079,
          61.123211
        ]
      }
    },
    {
      "type": "Feature",
      "properties": {
        "stop_id": 51,
        "stop_code": 51,
        "name": "OLD SEWARD and OMALLEY NNE"
      },
      "geometry": {
        "type": "Point",
        "coordinates": [
          -149.863409,
          61.123594
        ]
      }
    },
    {
      "type": "Feature",
      "properties": {
        "stop_id": 52,
        "stop_code": 52,
        "name": "OLD SEWARD and LINGON BERRY SSE"
      },
      "geometry": {
        "type": "Point",
        "coordinates": [
          -149.863708,
          61.127702
        ]
      }
    },
    {
      "type": "Feature",
      "properties": {
        "stop_id": 53,
        "stop_code": 53,
        "name": "OLD SEWARD and SUNDOWN SSE"
      },
      "geometry": {
        "type": "Point",
        "coordinates": [
          -149.863711,
          61.132639
        ]
      }
    },
    {
      "type": "Feature",
      "properties": {
        "stop_id": 55,
        "stop_code": 55,
        "name": "OLD SEWARD and ABBOTT NNE"
      },
      "geometry": {
        "type": "Point",
        "coordinates": [
          -149.863756,
          61.137899
        ]
      }
    },
    {
      "type": "Feature",
      "properties": {
        "stop_id": 60,
        "stop_code": 60,
        "name": "OLD SEWARD and SUNDOWN NNW"
      },
      "geometry": {
        "type": "Point",
        "coordinates": [
          -149.864123,
          61.133198
        ]
      }
    },
    {
      "type": "Feature",
      "properties": {
        "stop_id": 61,
        "stop_code": 61,
        "name": "OLD SEWARD and ABBOTT SSW"
      },
      "geometry": {
        "type": "Point",
        "coordinates": [
          -149.864298,
          61.136813
        ]
      }
    },
    {
      "type": "Feature",
      "properties": {
        "stop_id": 62,
        "stop_code": 62,
        "name": "OLD SEWARD and LAKEWOOD NNW"
      },
      "geometry": {
        "type": "Point",
        "coordinates": [
          -149.864169,
          61.134619
        ]
      }
    },
    {
      "type": "Feature",
      "properties": {
        "stop_id": 63,
        "stop_code": 63,
        "name": "OLD SEWARD and 100TH AV SSW"
      },
      "geometry": {
        "type": "Point",
        "coordinates": [
          -149.864178,
          61.129561
        ]
      }
    },
    {
      "type": "Feature",
      "properties": {
        "stop_id": 64,
        "stop_code": 64,
        "name": "OLD SEWARD and LINGON BERRY SSW"
      },
      "geometry": {
        "type": "Point",
        "coordinates": [
          -149.864138,
          61.127452
        ]
      }
    },
    {
      "type": "Feature",
      "properties": {
        "stop_id": 65,
        "stop_code": 65,
        "name": "OMALLEY and OMALLEY CTR WSW"
      },
      "geometry": {
        "type": "Point",
        "coordinates": [
          -149.860896,
          61.122971
        ]
      }
    },
    {
      "type": "Feature",
      "properties": {
        "stop_id": 66,
        "stop_code": 66,
        "name": "COMMODORE and ELCADORE NNE"
      },
      "geometry": {
        "type": "Point",
        "coordinates": [
          -149.850714,
          61.123771
        ]
      }
    },
    {
      "type": "Feature",
      "properties": {
        "stop_id": 67,
        "stop_code": 67,
        "name": "JAMESTOWN and COMMODORE NNE"
      },
      "geometry": {
        "type": "Point",
        "coordinates": [
          -149.847875,
          61.12629
        ]
      }
    },
    {
      "type": "Feature",
      "properties": {
        "stop_id": 68,
        "stop_code": 68,
        "name": "JAMESTOWN and MRTHAS VNYRD NNE"
      },
      "geometry": {
        "type": "Point",
        "coordinates": [
          -149.846782,
          61.127573
        ]
      }
    },
    {
      "type": "Feature",
      "properties": {
        "stop_id": 69,
        "stop_code": 69,
        "name": "INDEPENDENCE and JAMESTOWN WNW"
      },
      "geometry": {
        "type": "Point",
        "coordinates": [
          -149.84526,
          61.129296
        ]
      }
    },
    {
      "type": "Feature",
      "properties": {
        "stop_id": 70,
        "stop_code": 70,
        "name": "INDEPENDENCE and COLONY NNE"
      },
      "geometry": {
        "type": "Point",
        "coordinates": [
          -149.845694,
          61.131217
        ]
      }
    },
    {
      "type": "Feature",
      "properties": {
        "stop_id": 71,
        "stop_code": 71,
        "name": "INDEPENDENCE and VANGUARD NNE"
      },
      "geometry": {
        "type": "Point",
        "coordinates": [
          -149.844028,
          61.132679
        ]
      }
    },
    {
      "type": "Feature",
      "properties": {
        "stop_id": 72,
        "stop_code": 72,
        "name": "INDEPENDENCE and SENTRY SSE"
      },
      "geometry": {
        "type": "Point",
        "coordinates": [
          -149.841702,
          61.133822
        ]
      }
    },
    {
      "type": "Feature",
      "properties": {
        "stop_id": 75,
        "stop_code": 75,
        "name": "LAKE OTIS and ABBOTT NNE"
      },
      "geometry": {
        "type": "Point",
        "coordinates": [
          -149.833851,
          61.138063
        ]
      }
    },
    {
      "type": "Feature",
      "properties": {
        "stop_id": 76,
        "stop_code": 76,
        "name": "LAKE OTIS and 88TH AVENUE NNE"
      },
      "geometry": {
        "type": "Point",
        "coordinates": [
          -149.83388,
          61.141626
        ]
      }
    },
    {
      "type": "Feature",
      "properties": {
        "stop_id": 77,
        "stop_code": 77,
        "name": "LAKE OTIS and 84TH AVENUE SSE"
      },
      "geometry": {
        "type": "Point",
        "coordinates": [
          -149.833938,
          61.143466
        ]
      }
    },
    {
      "type": "Feature",
      "properties": {
        "stop_id": 78,
        "stop_code": 78,
        "name": "LAKE OTIS and 80TH AVENUE SSE"
      },
      "geometry": {
        "type": "Point",
        "coordinates": [
          -149.833924,
          61.14801
        ]
      }
    },
    {
      "type": "Feature",
      "properties": {
        "stop_id": 79,
        "stop_code": 79,
        "name": "LAKE OTIS and LORE NNE"
      },
      "geometry": {
        "type": "Point",
        "coordinates": [
          -149.833936,
          61.152491
        ]
      }
    },
    {
      "type": "Feature",
      "properties": {
        "stop_id": 80,
        "stop_code": 80,
        "name": "LAKE OTIS and 72ND AVENUE NNE"
      },
      "geometry": {
        "type": "Point",
        "coordinates": [
          -149.833987,
          61.156034
        ]
      }
    },
    {
      "type": "Feature",
      "properties": {
        "stop_id": 81,
        "stop_code": 81,
        "name": "LAKE OTIS and 68TH AVENUE NNE"
      },
      "geometry": {
        "type": "Point",
        "coordinates": [
          -149.833995,
          61.159673
        ]
      }
    },
    {
      "type": "Feature",
      "properties": {
        "stop_id": 82,
        "stop_code": 82,
        "name": "LAKE OTIS and 63RD AVENUE SSE"
      },
      "geometry": {
        "type": "Point",
        "coordinates": [
          -149.834732,
          61.163002
        ]
      }
    },
    {
      "type": "Feature",
      "properties": {
        "stop_id": 83,
        "stop_code": 83,
        "name": "LAKE OTIS and DOWLING NNE"
      },
      "geometry": {
        "type": "Point",
        "coordinates": [
          -149.837928,
          61.167108
        ]
      }
    },
    {
      "type": "Feature",
      "properties": {
        "stop_id": 84,
        "stop_code": 84,
        "name": "LAKE OTIS and PAGO PAGO NNE"
      },
      "geometry": {
        "type": "Point",
        "coordinates": [
          -149.837983,
          61.168973
        ]
      }
    },
    {
      "type": "Feature",
      "properties": {
        "stop_id": 85,
        "stop_code": 85,
        "name": "LAKE OTIS and YMCA E"
      },
      "geometry": {
        "type": "Point",
        "coordinates": [
          -149.83799,
          61.172119
        ]
      }
    },
    {
      "type": "Feature",
      "properties": {
        "stop_id": 86,
        "stop_code": 86,
        "name": "LAKE OTIS and WALDRON NNE"
      },
      "geometry": {
        "type": "Point",
        "coordinates": [
          -149.837926,
          61.175672
        ]
      }
    },
    {
      "type": "Feature",
      "properties": {
        "stop_id": 87,
        "stop_code": 87,
        "name": "LAKE OTIS and 48TH AVENUE NNE"
      },
      "geometry": {
        "type": "Point",
        "coordinates": [
          -149.837896,
          61.178335
        ]
      }
    },
    {
      "type": "Feature",
      "properties": {
        "stop_id": 88,
        "stop_code": 88,
        "name": "LAKE OTIS and TUDOR NNE"
      },
      "geometry": {
        "type": "Point",
        "coordinates": [
          -149.83782,
          61.181574
        ]
      }
    },
    {
      "type": "Feature",
      "properties": {
        "stop_id": 89,
        "stop_code": 89,
        "name": "LAKE OTIS and 42ND AVENUE NNE"
      },
      "geometry": {
        "type": "Point",
        "coordinates": [
          -149.83801,
          61.183027
        ]
      }
    },
    {
      "type": "Feature",
      "properties": {
        "stop_id": 90,
        "stop_code": 90,
        "name": "LAKE OTIS and 40TH AVENUE NNE"
      },
      "geometry": {
        "type": "Point",
        "coordinates": [
          -149.837934,
          61.18525
        ]
      }
    },
    {
      "type": "Feature",
      "properties": {
        "stop_id": 91,
        "stop_code": 91,
        "name": "36TH AVENUE and LAKE OTIS WNW"
      },
      "geometry": {
        "type": "Point",
        "coordinates": [
          -149.838994,
          61.188133
        ]
      }
    },
    {
      "type": "Feature",
      "properties": {
        "stop_id": 93,
        "stop_code": 93,
        "name": "36TH AVENUE and MACINNES WNW"
      },
      "geometry": {
        "type": "Point",
        "coordinates": [
          -149.850219,
          61.188129
        ]
      }
    },
    {
      "type": "Feature",
      "properties": {
        "stop_id": 95,
        "stop_code": 95,
        "name": "36TH AVENUE and LATOUCHE WNW"
      },
      "geometry": {
        "type": "Point",
        "coordinates": [
          -149.859491,
          61.188197
        ]
      }
    },
    {
      "type": "Feature",
      "properties": {
        "stop_id": 98,
        "stop_code": 98,
        "name": "36TH AVENUE and DENALI WNW"
      },
      "geometry": {
        "type": "Point",
        "coordinates": [
          -149.878195,
          61.188196
        ]
      }
    },
    {
      "type": "Feature",
      "properties": {
        "stop_id": 99,
        "stop_code": 99,
        "name": "A STREET and 36TH AVENUE NNE"
      },
      "geometry": {
        "type": "Point",
        "coordinates": [
          -149.882889,
          61.189004
        ]
      }
    },
    {
      "type": "Feature",
      "properties": {
        "stop_id": 100,
        "stop_code": 100,
        "name": "A STREET and 31ST AVENUE SSE"
      },
      "geometry": {
        "type": "Point",
        "coordinates": [
          -149.882929,
          61.192401
        ]
      }
    },
    {
      "type": "Feature",
      "properties": {
        "stop_id": 101,
        "stop_code": 101,
        "name": "A STREET and NORTHERN LIGHTS NNE"
      },
      "geometry": {
        "type": "Point",
        "coordinates": [
          -149.882935,
          61.195933
        ]
      }
    },
    {
      "type": "Feature",
      "properties": {
        "stop_id": 102,
        "stop_code": 102,
        "name": "A STREET and FIREWEED NNE"
      },
      "geometry": {
        "type": "Point",
        "coordinates": [
          -149.882806,
          61.199169
        ]
      }
    },
    {
      "type": "Feature",
      "properties": {
        "stop_id": 103,
        "stop_code": 103,
        "name": "A STREET and CHESTER CREEK TRAIL"
      },
      "geometry": {
        "type": "Point",
        "coordinates": [
          -149.883145,
          61.204353
        ]
      }
    },
    {
      "type": "Feature",
      "properties": {
        "stop_id": 104,
        "stop_code": 104,
        "name": "A STREET and 16TH AVENUE NNE"
      },
      "geometry": {
        "type": "Point",
        "coordinates": [
          -149.882898,
          61.206829
        ]
      }
    },
    {
      "type": "Feature",
      "properties": {
        "stop_id": 105,
        "stop_code": 105,
        "name": "A STREET and 13TH AVENUE NNE"
      },
      "geometry": {
        "type": "Point",
        "coordinates": [
          -149.883095,
          61.210194
        ]
      }
    },
    {
      "type": "Feature",
      "properties": {
        "stop_id": 106,
        "stop_code": 106,
        "name": "A STREET and 11TH AVENUE NNE"
      },
      "geometry": {
        "type": "Point",
        "coordinates": [
          -149.883276,
          61.212138
        ]
      }
    },
    {
      "type": "Feature",
      "properties": {
        "stop_id": 127,
        "stop_code": 127,
        "name": "SPENARD and 25TH AVENUE SSW"
      },
      "geometry": {
        "type": "Point",
        "coordinates": [
          -149.905568,
          61.197572
        ]
      }
    },
    {
      "type": "Feature",
      "properties": {
        "stop_id": 128,
        "stop_code": 128,
        "name": "SPENARD and 27TH AVENUE SSW"
      },
      "geometry": {
        "type": "Point",
        "coordinates": [
          -149.905579,
          61.196082
        ]
      }
    },
    {
      "type": "Feature",
      "properties": {
        "stop_id": 129,
        "stop_code": 129,
        "name": "SPENARD and BENSON NNW"
      },
      "geometry": {
        "type": "Point",
        "coordinates": [
          -149.905786,
          61.194405
        ]
      }
    },
    {
      "type": "Feature",
      "properties": {
        "stop_id": 130,
        "stop_code": 130,
        "name": "SPENARD and 30TH AVENUE NNW"
      },
      "geometry": {
        "type": "Point",
        "coordinates": [
          -149.905774,
          61.193005
        ]
      }
    },
    {
      "type": "Feature",
      "properties": {
        "stop_id": 131,
        "stop_code": 131,
        "name": "SPENARD and 33RD AVENUE NNW"
      },
      "geometry": {
        "type": "Point",
        "coordinates": [
          -149.907481,
          61.190675
        ]
      }
    },
    {
      "type": "Feature",
      "properties": {
        "stop_id": 132,
        "stop_code": 132,
        "name": "SPENARD and 34TH AVENUE SSW"
      },
      "geometry": {
        "type": "Point",
        "coordinates": [
          -149.908677,
          61.189041
        ]
      }
    },
    {
      "type": "Feature",
      "properties": {
        "stop_id": 133,
        "stop_code": 133,
        "name": "SPENARD and MINNESOTA ENE"
      },
      "geometry": {
        "type": "Point",
        "coordinates": [
          -149.912189,
          61.186983
        ]
      }
    },
    {
      "type": "Feature",
      "properties": {
        "stop_id": 134,
        "stop_code": 134,
        "name": "SPENARD and GREENLAND WNW"
      },
      "geometry": {
        "type": "Point",
        "coordinates": [
          -149.914835,
          61.186667
        ]
      }
    },
    {
      "type": "Feature",
      "properties": {
        "stop_id": 135,
        "stop_code": 135,
        "name": "SPENARD and OREGON WNW"
      },
      "geometry": {
        "type": "Point",
        "coordinates": [
          -149.918527,
          61.186078
        ]
      }
    },
    {
      "type": "Feature",
      "properties": {
        "stop_id": 136,
        "stop_code": 136,
        "name": "SPENARD and MCRAE WNW"
      },
      "geometry": {
        "type": "Point",
        "coordinates": [
          -149.923969,
          61.185175
        ]
      }
    },
    {
      "type": "Feature",
      "properties": {
        "stop_id": 137,
        "stop_code": 137,
        "name": "SPENARD and NORTHWOOD ENE"
      },
      "geometry": {
        "type": "Point",
        "coordinates": [
          -149.927104,
          61.183869
        ]
      }
    },
    {
      "type": "Feature",
      "properties": {
        "stop_id": 141,
        "stop_code": 141,
        "name": "SPENARD and WISCONSIN SSW"
      },
      "geometry": {
        "type": "Point",
        "coordinates": [
          -149.939617,
          61.178721
        ]
      }
    },
    {
      "type": "Feature",
      "properties": {
        "stop_id": 142,
        "stop_code": 142,
        "name": "SPENARD and BREEZEWOOD SSW"
      },
      "geometry": {
        "type": "Point",
        "coordinates": [
          -149.942041,
          61.177061
        ]
      }
    },
    {
      "type": "Feature",
      "properties": {
        "stop_id": 143,
        "stop_code": 143,
        "name": "SPENARD and INTL ARPT RD NNW"
      },
      "geometry": {
        "type": "Point",
        "coordinates": [
          -149.944283,
          61.175228
        ]
      }
    },
    {
      "type": "Feature",
      "properties": {
        "stop_id": 144,
        "stop_code": 144,
        "name": "JEWEL LAKE and INTL AIRPORT SSW"
      },
      "geometry": {
        "type": "Point",
        "coordinates": [
          -149.943333,
          61.173138
        ]
      }
    },
    {
      "type": "Feature",
      "properties": {
        "stop_id": 145,
        "stop_code": 145,
        "name": "COLLINS WAY and JEWEL LAKE SSW"
      },
      "geometry": {
        "type": "Point",
        "coordinates": [
          -149.942721,
          61.166328
        ]
      }
    },
    {
      "type": "Feature",
      "properties": {
        "stop_id": 146,
        "stop_code": 146,
        "name": "COLLINS WAY and 62ND AVENUE NNW"
      },
      "geometry": {
        "type": "Point",
        "coordinates": [
          -149.94039,
          61.164603
        ]
      }
    },
    {
      "type": "Feature",
      "properties": {
        "stop_id": 147,
        "stop_code": 147,
        "name": "64TH AVENUE and COLLINS WAY ESE"
      },
      "geometry": {
        "type": "Point",
        "coordinates": [
          -149.938009,
          61.162726
        ]
      }
    },
    {
      "type": "Feature",
      "properties": {
        "stop_id": 148,
        "stop_code": 148,
        "name": "CRANBERRY and HOLLY SSW"
      },
      "geometry": {
        "type": "Point",
        "coordinates": [
          -149.936982,
          61.160777
        ]
      }
    },
    {
      "type": "Feature",
      "properties": {
        "stop_id": 149,
        "stop_code": 149,
        "name": "RASPBERRY and CRANBERRY WNW"
      },
      "geometry": {
        "type": "Point",
        "coordinates": [
          -149.937835,
          61.159472
        ]
      }
    },
    {
      "type": "Feature",
      "properties": {
        "stop_id": 151,
        "stop_code": 151,
        "name": "RASPBERRY and BLACKBERRY WNW"
      },
      "geometry": {
        "type": "Point",
        "coordinates": [
          -149.945456,
          61.159343
        ]
      }
    },
    {
      "type": "Feature",
      "properties": {
        "stop_id": 154,
        "stop_code": 154,
        "name": "JEWEL LAKE and RASPBERRY SSW"
      },
      "geometry": {
        "type": "Point",
        "coordinates": [
          -149.95201,
          61.158084
        ]
      }
    },
    {
      "type": "Feature",
      "properties": {
        "stop_id": 155,
        "stop_code": 155,
        "name": "JEWEL LAKE and 74TH AVENUE NNW"
      },
      "geometry": {
        "type": "Point",
        "coordinates": [
          -149.952108,
          61.15393
        ]
      }
    },
    {
      "type": "Feature",
      "properties": {
        "stop_id": 156,
        "stop_code": 156,
        "name": "JEWEL LAKE and STRAWBERRY SSW"
      },
      "geometry": {
        "type": "Point",
        "coordinates": [
          -149.952125,
          61.151515
        ]
      }
    },
    {
      "type": "Feature",
      "properties": {
        "stop_id": 157,
        "stop_code": 157,
        "name": "JEWEL LAKE and 79TH COURT SSW"
      },
      "geometry": {
        "type": "Point",
        "coordinates": [
          -149.952135,
          61.149323
        ]
      }
    },
    {
      "type": "Feature",
      "properties": {
        "stop_id": 158,
        "stop_code": 158,
        "name": "JEWEL LAKE and 82ND AVENUE NNW"
      },
      "geometry": {
        "type": "Point",
        "coordinates": [
          -149.95212,
          61.146888
        ]
      }
    },
    {
      "type": "Feature",
      "properties": {
        "stop_id": 159,
        "stop_code": 159,
        "name": "JEWEL LAKE and 84TH AVENUE NNW"
      },
      "geometry": {
        "type": "Point",
        "coordinates": [
          -149.952091,
          61.144944
        ]
      }
    },
    {
      "type": "Feature",
      "properties": {
        "stop_id": 162,
        "stop_code": 162,
        "name": "88TH AVENUE and JEWEL LAKE ESE"
      },
      "geometry": {
        "type": "Point",
        "coordinates": [
          -149.949989,
          61.141015
        ]
      }
    },
    {
      "type": "Feature",
      "properties": {
        "stop_id": 163,
        "stop_code": 163,
        "name": "88TH AVENUE and ALAMOSA ESE"
      },
      "geometry": {
        "type": "Point",
        "coordinates": [
          -149.945966,
          61.141002
        ]
      }
    },
    {
      "type": "Feature",
      "properties": {
        "stop_id": 164,
        "stop_code": 164,
        "name": "88TH AVENUE and DEWBERRY ESE"
      },
      "geometry": {
        "type": "Point",
        "coordinates": [
          -149.939802,
          61.141005
        ]
      }
    },
    {
      "type": "Feature",
      "properties": {
        "stop_id": 165,
        "stop_code": 165,
        "name": "88TH AVENUE and CRANBERRY ESE"
      },
      "geometry": {
        "type": "Point",
        "coordinates": [
          -149.936335,
          61.140991
        ]
      }
    },
    {
      "type": "Feature",
      "properties": {
        "stop_id": 166,
        "stop_code": 166,
        "name": "88TH AVENUE and FOREST VILLAGE ESE"
      },
      "geometry": {
        "type": "Point",
        "coordinates": [
          -149.933041,
          61.141015
        ]
      }
    },
    {
      "type": "Feature",
      "properties": {
        "stop_id": 167,
        "stop_code": 167,
        "name": "ARLENE and DIMOND NNW"
      },
      "geometry": {
        "type": "Point",
        "coordinates": [
          -149.929531,
          61.1384
        ]
      }
    },
    {
      "type": "Feature",
      "properties": {
        "stop_id": 177,
        "stop_code": 177,
        "name": "DIMOND and VICTOR ESE"
      },
      "geometry": {
        "type": "Point",
        "coordinates": [
          -149.919241,
          61.137278
        ]
      }
    },
    {
      "type": "Feature",
      "properties": {
        "stop_id": 179,
        "stop_code": 179,
        "name": "DIMOND and MINNESOTA ESE"
      },
      "geometry": {
        "type": "Point",
        "coordinates": [
          -149.905249,
          61.140868
        ]
      }
    },
    {
      "type": "Feature",
      "properties": {
        "stop_id": 180,
        "stop_code": 180,
        "name": "DIMOND and ANGELA ESE"
      },
      "geometry": {
        "type": "Point",
        "coordinates": [
          -149.914884,
          61.13814
        ]
      }
    },
    {
      "type": "Feature",
      "properties": {
        "stop_id": 189,
        "stop_code": 189,
        "name": "DIMOND and DIMOND CTR DR WNW"
      },
      "geometry": {
        "type": "Point",
        "coordinates": [
          -149.872669,
          61.144916
        ]
      }
    },
    {
      "type": "Feature",
      "properties": {
        "stop_id": 191,
        "stop_code": 191,
        "name": "DIMOND and C STREET WNW"
      },
      "geometry": {
        "type": "Point",
        "coordinates": [
          -149.888768,
          61.144911
        ]
      }
    },
    {
      "type": "Feature",
      "properties": {
        "stop_id": 193,
        "stop_code": 193,
        "name": "DIMOND and MINNESOTA ENE"
      },
      "geometry": {
        "type": "Point",
        "coordinates": [
          -149.905399,
          61.141256
        ]
      }
    },
    {
      "type": "Feature",
      "properties": {
        "stop_id": 194,
        "stop_code": 194,
        "name": "DIMOND and ANGELA ENE"
      },
      "geometry": {
        "type": "Point",
        "coordinates": [
          -149.915181,
          61.138601
        ]
      }
    },
    {
      "type": "Feature",
      "properties": {
        "stop_id": 195,
        "stop_code": 195,
        "name": "DIMOND and VICTOR WNW"
      },
      "geometry": {
        "type": "Point",
        "coordinates": [
          -149.923468,
          61.137655
        ]
      }
    },
    {
      "type": "Feature",
      "properties": {
        "stop_id": 198,
        "stop_code": 198,
        "name": "88TH AVENUE and FOREST VILLAGE ENE"
      },
      "geometry": {
        "type": "Point",
        "coordinates": [
          -149.933541,
          61.14115
        ]
      }
    },
    {
      "type": "Feature",
      "properties": {
        "stop_id": 199,
        "stop_code": 199,
        "name": "88TH AVENUE and CRANBERRY WNW"
      },
      "geometry": {
        "type": "Point",
        "coordinates": [
          -149.937753,
          61.141153
        ]
      }
    },
    {
      "type": "Feature",
      "properties": {
        "stop_id": 200,
        "stop_code": 200,
        "name": "88TH AVENUE and DEWBERRY WNW"
      },
      "geometry": {
        "type": "Point",
        "coordinates": [
          -149.941504,
          61.141195
        ]
      }
    },
    {
      "type": "Feature",
      "properties": {
        "stop_id": 201,
        "stop_code": 201,
        "name": "88TH AVENUE and ALAMOSA WNW"
      },
      "geometry": {
        "type": "Point",
        "coordinates": [
          -149.946659,
          61.14118
        ]
      }
    },
    {
      "type": "Feature",
      "properties": {
        "stop_id": 202,
        "stop_code": 202,
        "name": "88TH AVENUE and MOLANARY WNW"
      },
      "geometry": {
        "type": "Point",
        "coordinates": [
          -149.949873,
          61.141198
        ]
      }
    },
    {
      "type": "Feature",
      "properties": {
        "stop_id": 210,
        "stop_code": 210,
        "name": "JEWEL LAKE and 88TH AVENUE NNE"
      },
      "geometry": {
        "type": "Point",
        "coordinates": [
          -149.951684,
          61.141705
        ]
      }
    },
    {
      "type": "Feature",
      "properties": {
        "stop_id": 212,
        "stop_code": 212,
        "name": "JEWEL LAKE and 84TH AVENUE SSE"
      },
      "geometry": {
        "type": "Point",
        "coordinates": [
          -149.951693,
          61.144536
        ]
      }
    },
    {
      "type": "Feature",
      "properties": {
        "stop_id": 213,
        "stop_code": 213,
        "name": "JEWEL LAKE and 82ND AVENUE NNE"
      },
      "geometry": {
        "type": "Point",
        "coordinates": [
          -149.951743,
          61.146968
        ]
      }
    },
    {
      "type": "Feature",
      "properties": {
        "stop_id": 214,
        "stop_code": 214,
        "name": "JEWEL LAKE and 79TH AVENUE SSE"
      },
      "geometry": {
        "type": "Point",
        "coordinates": [
          -149.951648,
          61.149121
        ]
      }
    },
    {
      "type": "Feature",
      "properties": {
        "stop_id": 215,
        "stop_code": 215,
        "name": "JEWEL LAKE and STRAWBERRY NNE"
      },
      "geometry": {
        "type": "Point",
        "coordinates": [
          -149.951774,
          61.152264
        ]
      }
    },
    {
      "type": "Feature",
      "properties": {
        "stop_id": 216,
        "stop_code": 216,
        "name": "JEWEL LAKE and 74TH AVENUE NNE"
      },
      "geometry": {
        "type": "Point",
        "coordinates": [
          -149.951595,
          61.154355
        ]
      }
    },
    {
      "type": "Feature",
      "properties": {
        "stop_id": 217,
        "stop_code": 217,
        "name": "JEWEL LAKE and WEIMER NNE"
      },
      "geometry": {
        "type": "Point",
        "coordinates": [
          -149.951648,
          61.156645
        ]
      }
    },
    {
      "type": "Feature",
      "properties": {
        "stop_id": 218,
        "stop_code": 218,
        "name": "RASPBERRY and JEWEL LAKE ESE"
      },
      "geometry": {
        "type": "Point",
        "coordinates": [
          -149.950401,
          61.159048
        ]
      }
    },
    {
      "type": "Feature",
      "properties": {
        "stop_id": 219,
        "stop_code": 219,
        "name": "RASPBERRY and CHEVIGNY ESE"
      },
      "geometry": {
        "type": "Point",
        "coordinates": [
          -149.945902,
          61.159134
        ]
      }
    },
    {
      "type": "Feature",
      "properties": {
        "stop_id": 220,
        "stop_code": 220,
        "name": "RASPBERRY and CRANBERRY WSW"
      },
      "geometry": {
        "type": "Point",
        "coordinates": [
          -149.941101,
          61.159056
        ]
      }
    },
    {
      "type": "Feature",
      "properties": {
        "stop_id": 222,
        "stop_code": 222,
        "name": "CRANBERRY and 65TH AVENUE SSE"
      },
      "geometry": {
        "type": "Point",
        "coordinates": [
          -149.936765,
          61.161315
        ]
      }
    },
    {
      "type": "Feature",
      "properties": {
        "stop_id": 223,
        "stop_code": 223,
        "name": "64TH AVENUE and COLLINS WAY ENE"
      },
      "geometry": {
        "type": "Point",
        "coordinates": [
          -149.938341,
          61.162801
        ]
      }
    },
    {
      "type": "Feature",
      "properties": {
        "stop_id": 224,
        "stop_code": 224,
        "name": "COLLINS WAY and 62ND AVENUE NNE"
      },
      "geometry": {
        "type": "Point",
        "coordinates": [
          -149.940259,
          61.164687
        ]
      }
    },
    {
      "type": "Feature",
      "properties": {
        "stop_id": 225,
        "stop_code": 225,
        "name": "COLLINS WAY and JEWEL LAKE SSE"
      },
      "geometry": {
        "type": "Point",
        "coordinates": [
          -149.942512,
          61.166285
        ]
      }
    },
    {
      "type": "Feature",
      "properties": {
        "stop_id": 226,
        "stop_code": 226,
        "name": "JEWEL LAKE and INTL AIRPORT SSE"
      },
      "geometry": {
        "type": "Point",
        "coordinates": [
          -149.942827,
          61.173339
        ]
      }
    },
    {
      "type": "Feature",
      "properties": {
        "stop_id": 227,
        "stop_code": 227,
        "name": "SPENARD and INTL ARPT RD NNE"
      },
      "geometry": {
        "type": "Point",
        "coordinates": [
          -149.943772,
          61.175119
        ]
      }
    },
    {
      "type": "Feature",
      "properties": {
        "stop_id": 228,
        "stop_code": 228,
        "name": "SPENARD and VALLEYWOOD NNE"
      },
      "geometry": {
        "type": "Point",
        "coordinates": [
          -149.940313,
          61.177654
        ]
      }
    },
    {
      "type": "Feature",
      "properties": {
        "stop_id": 229,
        "stop_code": 229,
        "name": "SPENARD and WISCONSIN NNE"
      },
      "geometry": {
        "type": "Point",
        "coordinates": [
          -149.938168,
          61.17964
        ]
      }
    },
    {
      "type": "Feature",
      "properties": {
        "stop_id": 232,
        "stop_code": 232,
        "name": "SPENARD and MCKINLEY SSE"
      },
      "geometry": {
        "type": "Point",
        "coordinates": [
          -149.926171,
          61.183983
        ]
      }
    },
    {
      "type": "Feature",
      "properties": {
        "stop_id": 233,
        "stop_code": 233,
        "name": "SPENARD and TAFT ESE"
      },
      "geometry": {
        "type": "Point",
        "coordinates": [
          -149.922413,
          61.185367
        ]
      }
    },
    {
      "type": "Feature",
      "properties": {
        "stop_id": 234,
        "stop_code": 234,
        "name": "SPENARD and WYOMING WSW"
      },
      "geometry": {
        "type": "Point",
        "coordinates": [
          -149.916088,
          61.186326
        ]
      }
    },
    {
      "type": "Feature",
      "properties": {
        "stop_id": 235,
        "stop_code": 235,
        "name": "SPENARD and MINNESOTA ESE"
      },
      "geometry": {
        "type": "Point",
        "coordinates": [
          -149.911704,
          61.186843
        ]
      }
    },
    {
      "type": "Feature",
      "properties": {
        "stop_id": 236,
        "stop_code": 236,
        "name": "SPENARD and 36TH AVENUE NNE"
      },
      "geometry": {
        "type": "Point",
        "coordinates": [
          -149.90845,
          61.18847
        ]
      }
    },
    {
      "type": "Feature",
      "properties": {
        "stop_id": 237,
        "stop_code": 237,
        "name": "SPENARD and 33RD AVENUE NNE"
      },
      "geometry": {
        "type": "Point",
        "coordinates": [
          -149.906626,
          61.191292
        ]
      }
    },
    {
      "type": "Feature",
      "properties": {
        "stop_id": 238,
        "stop_code": 238,
        "name": "SPENARD and Benson Blvd SSE"
      },
      "geometry": {
        "type": "Point",
        "coordinates": [
          -149.90529,
          61.193564
        ]
      }
    },
    {
      "type": "Feature",
      "properties": {
        "stop_id": 239,
        "stop_code": 239,
        "name": "SPENARD and NORTHERN LIGHTS NNE"
      },
      "geometry": {
        "type": "Point",
        "coordinates": [
          -149.905287,
          61.195857
        ]
      }
    },
    {
      "type": "Feature",
      "properties": {
        "stop_id": 240,
        "stop_code": 240,
        "name": "SPENARD and 26TH AVE NNE"
      },
      "geometry": {
        "type": "Point",
        "coordinates": [
          -149.905386,
          61.197453
        ]
      }
    },
    {
      "type": "Feature",
      "properties": {
        "stop_id": 245,
        "stop_code": 245,
        "name": "17TH AVENUE and E STREET WSW"
      },
      "geometry": {
        "type": "Point",
        "coordinates": [
          -149.892528,
          61.205238
        ]
      }
    },
    {
      "type": "Feature",
      "properties": {
        "stop_id": 250,
        "stop_code": 250,
        "name": "A STREET and 8TH AVENUE NNE"
      },
      "geometry": {
        "type": "Point",
        "coordinates": [
          -149.883118,
          61.215023
        ]
      }
    },
    {
      "type": "Feature",
      "properties": {
        "stop_id": 275,
        "stop_code": 275,
        "name": "BENSON and SPENARD ESE"
      },
      "geometry": {
        "type": "Point",
        "coordinates": [
          -149.904487,
          61.193942
        ]
      }
    },
    {
      "type": "Feature",
      "properties": {
        "stop_id": 276,
        "stop_code": 276,
        "name": "BENSON and ARCTIC ESE"
      },
      "geometry": {
        "type": "Point",
        "coordinates": [
          -149.896939,
          61.194138
        ]
      }
    },
    {
      "type": "Feature",
      "properties": {
        "stop_id": 277,
        "stop_code": 277,
        "name": "BENSON and CHEECHAKO ESE"
      },
      "geometry": {
        "type": "Point",
        "coordinates": [
          -149.893564,
          61.194175
        ]
      }
    },
    {
      "type": "Feature",
      "properties": {
        "stop_id": 278,
        "stop_code": 278,
        "name": "BENSON and EUREKA ESE"
      },
      "geometry": {
        "type": "Point",
        "coordinates": [
          -149.889929,
          61.194167
        ]
      }
    },
    {
      "type": "Feature",
      "properties": {
        "stop_id": 279,
        "stop_code": 279,
        "name": "BENSON and C STREET ESE"
      },
      "geometry": {
        "type": "Point",
        "coordinates": [
          -149.88568,
          61.194147
        ]
      }
    },
    {
      "type": "Feature",
      "properties": {
        "stop_id": 280,
        "stop_code": 280,
        "name": "BENSON and A STREET ESE"
      },
      "geometry": {
        "type": "Point",
        "coordinates": [
          -149.879827,
          61.19369
        ]
      }
    },
    {
      "type": "Feature",
      "properties": {
        "stop_id": 281,
        "stop_code": 281,
        "name": "BENSON and DENALI ESE"
      },
      "geometry": {
        "type": "Point",
        "coordinates": [
          -149.875129,
          61.193381
        ]
      }
    },
    {
      "type": "Feature",
      "properties": {
        "stop_id": 282,
        "stop_code": 282,
        "name": "BENSON and NEW SEWARD ESE"
      },
      "geometry": {
        "type": "Point",
        "coordinates": [
          -149.866474,
          61.193322
        ]
      }
    },
    {
      "type": "Feature",
      "properties": {
        "stop_id": 283,
        "stop_code": 283,
        "name": "BENSON and LATOUCHE ESE"
      },
      "geometry": {
        "type": "Point",
        "coordinates": [
          -149.85976,
          61.194516
        ]
      }
    },
    {
      "type": "Feature",
      "properties": {
        "stop_id": 284,
        "stop_code": 284,
        "name": "NORTHERN LIGHTS and REDWOOD ESE"
      },
      "geometry": {
        "type": "Point",
        "coordinates": [
          -149.855217,
          61.195305
        ]
      }
    },
    {
      "type": "Feature",
      "properties": {
        "stop_id": 285,
        "stop_code": 285,
        "name": "NORTHERN LIGHTS and DRAKE WSW"
      },
      "geometry": {
        "type": "Point",
        "coordinates": [
          -149.846588,
          61.195223
        ]
      }
    },
    {
      "type": "Feature",
      "properties": {
        "stop_id": 286,
        "stop_code": 286,
        "name": "NORTHERN LIGHTS and LAKE OTIS WSW"
      },
      "geometry": {
        "type": "Point",
        "coordinates": [
          -149.842519,
          61.195219
        ]
      }
    },
    {
      "type": "Feature",
      "properties": {
        "stop_id": 291,
        "stop_code": 291,
        "name": "PROVIDENCE and PIPER ESE"
      },
      "geometry": {
        "type": "Point",
        "coordinates": [
          -149.828212,
          61.1879
        ]
      }
    },
    {
      "type": "Feature",
      "properties": {
        "stop_id": 293,
        "stop_code": 293,
        "name": "UAA DRIVE and PROVIDENCE NNE"
      },
      "geometry": {
        "type": "Point",
        "coordinates": [
          -149.82235,
          61.190268
        ]
      }
    },
    {
      "type": "Feature",
      "properties": {
        "stop_id": 302,
        "stop_code": 302,
        "name": "BONIFACE and NORTHERN LIGHTS NNE"
      },
      "geometry": {
        "type": "Point",
        "coordinates": [
          -149.778172,
          61.195917
        ]
      }
    },
    {
      "type": "Feature",
      "properties": {
        "stop_id": 303,
        "stop_code": 303,
        "name": "BONIFACE and 24TH AVENUE SSE"
      },
      "geometry": {
        "type": "Point",
        "coordinates": [
          -149.778171,
          61.198302
        ]
      }
    },
    {
      "type": "Feature",
      "properties": {
        "stop_id": 304,
        "stop_code": 304,
        "name": "PEMBROKE and COLLEGE SSE"
      },
      "geometry": {
        "type": "Point",
        "coordinates": [
          -149.777904,
          61.200347
        ]
      }
    },
    {
      "type": "Feature",
      "properties": {
        "stop_id": 305,
        "stop_code": 305,
        "name": "PENN and RADCLIFFE SSE"
      },
      "geometry": {
        "type": "Point",
        "coordinates": [
          -149.776269,
          61.201935
        ]
      }
    },
    {
      "type": "Feature",
      "properties": {
        "stop_id": 306,
        "stop_code": 306,
        "name": "STERLING and RICHARDSON ESE"
      },
      "geometry": {
        "type": "Point",
        "coordinates": [
          -149.774585,
          61.20417
        ]
      }
    },
    {
      "type": "Feature",
      "properties": {
        "stop_id": 307,
        "stop_code": 307,
        "name": "NUNAKA and FULTON NNE"
      },
      "geometry": {
        "type": "Point",
        "coordinates": [
          -149.772306,
          61.204589
        ]
      }
    },
    {
      "type": "Feature",
      "properties": {
        "stop_id": 308,
        "stop_code": 308,
        "name": "NUNAKA and MILEY NNE"
      },
      "geometry": {
        "type": "Point",
        "coordinates": [
          -149.769913,
          61.207597
        ]
      }
    },
    {
      "type": "Feature",
      "properties": {
        "stop_id": 309,
        "stop_code": 309,
        "name": "NUNAKA and DEBARR SSE"
      },
      "geometry": {
        "type": "Point",
        "coordinates": [
          -149.769918,
          61.209234
        ]
      }
    },
    {
      "type": "Feature",
      "properties": {
        "stop_id": 311,
        "stop_code": 311,
        "name": "DEBARR and BEAVER ESE"
      },
      "geometry": {
        "type": "Point",
        "coordinates": [
          -149.761838,
          61.209644
        ]
      }
    },
    {
      "type": "Feature",
      "properties": {
        "stop_id": 312,
        "stop_code": 312,
        "name": "DEBARR and TURPIN ESE"
      },
      "geometry": {
        "type": "Point",
        "coordinates": [
          -149.754945,
          61.209625
        ]
      }
    },
    {
      "type": "Feature",
      "properties": {
        "stop_id": 321,
        "stop_code": 321,
        "name": "CHANDALAR and 2441 EAST"
      },
      "geometry": {
        "type": "Point",
        "coordinates": [
          -149.74496,
          61.198167
        ]
      }
    },
    {
      "type": "Feature",
      "properties": {
        "stop_id": 322,
        "stop_code": 322,
        "name": "CHANDALAR and 2251 EAST"
      },
      "geometry": {
        "type": "Point",
        "coordinates": [
          -149.7445,
          61.199799
        ]
      }
    },
    {
      "type": "Feature",
      "properties": {
        "stop_id": 323,
        "stop_code": 323,
        "name": "CHANDALAR and 20TH AVENUE SSE"
      },
      "geometry": {
        "type": "Point",
        "coordinates": [
          -149.741649,
          61.202818
        ]
      }
    },
    {
      "type": "Feature",
      "properties": {
        "stop_id": 324,
        "stop_code": 324,
        "name": "20TH AVENUE and DIOMEDE WNW"
      },
      "geometry": {
        "type": "Point",
        "coordinates": [
          -149.744486,
          61.20333
        ]
      }
    },
    {
      "type": "Feature",
      "properties": {
        "stop_id": 325,
        "stop_code": 325,
        "name": "PATTERSON and 20TH AVENUE NNE"
      },
      "geometry": {
        "type": "Point",
        "coordinates": [
          -149.748302,
          61.203858
        ]
      }
    },
    {
      "type": "Feature",
      "properties": {
        "stop_id": 326,
        "stop_code": 326,
        "name": "PATTERSON and 17TH AVENUE NNE"
      },
      "geometry": {
        "type": "Point",
        "coordinates": [
          -149.748294,
          61.206027
        ]
      }
    },
    {
      "type": "Feature",
      "properties": {
        "stop_id": 327,
        "stop_code": 327,
        "name": "PATTERSON and MINK NNE"
      },
      "geometry": {
        "type": "Point",
        "coordinates": [
          -149.748303,
          61.209246
        ]
      }
    },
    {
      "type": "Feature",
      "properties": {
        "stop_id": 330,
        "stop_code": 330,
        "name": "DEBARR and PATTERSON ESE"
      },
      "geometry": {
        "type": "Point",
        "coordinates": [
          -149.747607,
          61.209649
        ]
      }
    },
    {
      "type": "Feature",
      "properties": {
        "stop_id": 331,
        "stop_code": 331,
        "name": "DEBARR and CREEKSIDE CTR WSW"
      },
      "geometry": {
        "type": "Point",
        "coordinates": [
          -149.741852,
          61.209659
        ]
      }
    },
    {
      "type": "Feature",
      "properties": {
        "stop_id": 332,
        "stop_code": 332,
        "name": "DEBARR and GRASS CREEK ESE"
      },
      "geometry": {
        "type": "Point",
        "coordinates": [
          -149.73645,
          61.20967
        ]
      }
    },
    {
      "type": "Feature",
      "properties": {
        "stop_id": 355,
        "stop_code": 355,
        "name": "DEBARR and MULDOON WNW"
      },
      "geometry": {
        "type": "Point",
        "coordinates": [
          -149.73524,
          61.209843
        ]
      }
    },
    {
      "type": "Feature",
      "properties": {
        "stop_id": 356,
        "stop_code": 356,
        "name": "DEBARR and CREEKSIDE CTR ENE"
      },
      "geometry": {
        "type": "Point",
        "coordinates": [
          -149.740571,
          61.209853
        ]
      }
    },
    {
      "type": "Feature",
      "properties": {
        "stop_id": 358,
        "stop_code": 358,
        "name": "PATTERSON and MINK SSW"
      },
      "geometry": {
        "type": "Point",
        "coordinates": [
          -149.74851,
          61.20891
        ]
      }
    },
    {
      "type": "Feature",
      "properties": {
        "stop_id": 359,
        "stop_code": 359,
        "name": "PATTERSON and 16TH AVENUE SSW"
      },
      "geometry": {
        "type": "Point",
        "coordinates": [
          -149.748513,
          61.205967
        ]
      }
    },
    {
      "type": "Feature",
      "properties": {
        "stop_id": 360,
        "stop_code": 360,
        "name": "20TH AVENUE and BARBOA WSW"
      },
      "geometry": {
        "type": "Point",
        "coordinates": [
          -149.745097,
          61.203389
        ]
      }
    },
    {
      "type": "Feature",
      "properties": {
        "stop_id": 361,
        "stop_code": 361,
        "name": "CHANDALAR and 21ST AVENUE SSW"
      },
      "geometry": {
        "type": "Point",
        "coordinates": [
          -149.742005,
          61.201804
        ]
      }
    },
    {
      "type": "Feature",
      "properties": {
        "stop_id": 362,
        "stop_code": 362,
        "name": "CHANDALAR and 2300 WEST"
      },
      "geometry": {
        "type": "Point",
        "coordinates": [
          -149.744774,
          61.199677
        ]
      }
    },
    {
      "type": "Feature",
      "properties": {
        "stop_id": 363,
        "stop_code": 363,
        "name": "CHANDALAR and 2450 WEST"
      },
      "geometry": {
        "type": "Point",
        "coordinates": [
          -149.7452,
          61.197753
        ]
      }
    },
    {
      "type": "Feature",
      "properties": {
        "stop_id": 364,
        "stop_code": 364,
        "name": "NORTHERN LIGHTS and AUGUSTINE WNW"
      },
      "geometry": {
        "type": "Point",
        "coordinates": [
          -149.744501,
          61.19545
        ]
      }
    },
    {
      "type": "Feature",
      "properties": {
        "stop_id": 365,
        "stop_code": 365,
        "name": "NORTHERN LIGHTS and PATTERSON WNW"
      },
      "geometry": {
        "type": "Point",
        "coordinates": [
          -149.749774,
          61.195521
        ]
      }
    },
    {
      "type": "Feature",
      "properties": {
        "stop_id": 366,
        "stop_code": 366,
        "name": "NORTHERN LIGHTS and BRITTANY WNW"
      },
      "geometry": {
        "type": "Point",
        "coordinates": [
          -149.755351,
          61.195496
        ]
      }
    },
    {
      "type": "Feature",
      "properties": {
        "stop_id": 367,
        "stop_code": 367,
        "name": "NORTHERN LIGHTS and CIMMARON WNW"
      },
      "geometry": {
        "type": "Point",
        "coordinates": [
          -149.759163,
          61.195451
        ]
      }
    },
    {
      "type": "Feature",
      "properties": {
        "stop_id": 368,
        "stop_code": 368,
        "name": "NORTHERN LIGHTS and BAXTER WNW"
      },
      "geometry": {
        "type": "Point",
        "coordinates": [
          -149.764613,
          61.195355
        ]
      }
    },
    {
      "type": "Feature",
      "properties": {
        "stop_id": 369,
        "stop_code": 369,
        "name": "NORTHERN LIGHTS and DERBY WNW"
      },
      "geometry": {
        "type": "Point",
        "coordinates": [
          -149.769304,
          61.195348
        ]
      }
    },
    {
      "type": "Feature",
      "properties": {
        "stop_id": 372,
        "stop_code": 372,
        "name": "DEBARR and PATTERSON WNW"
      },
      "geometry": {
        "type": "Point",
        "coordinates": [
          -149.749293,
          61.20982
        ]
      }
    },
    {
      "type": "Feature",
      "properties": {
        "stop_id": 373,
        "stop_code": 373,
        "name": "DEBARR and TURPIN WNW"
      },
      "geometry": {
        "type": "Point",
        "coordinates": [
          -149.757299,
          61.209841
        ]
      }
    },
    {
      "type": "Feature",
      "properties": {
        "stop_id": 374,
        "stop_code": 374,
        "name": "DEBARR and EDWARD ENE"
      },
      "geometry": {
        "type": "Point",
        "coordinates": [
          -149.763379,
          61.209834
        ]
      }
    },
    {
      "type": "Feature",
      "properties": {
        "stop_id": 375,
        "stop_code": 375,
        "name": "NUNAKA and DEBARR SSW"
      },
      "geometry": {
        "type": "Point",
        "coordinates": [
          -149.770231,
          61.209018
        ]
      }
    },
    {
      "type": "Feature",
      "properties": {
        "stop_id": 376,
        "stop_code": 376,
        "name": "NUNAKA and MILEY SSW"
      },
      "geometry": {
        "type": "Point",
        "coordinates": [
          -149.770177,
          61.207347
        ]
      }
    },
    {
      "type": "Feature",
      "properties": {
        "stop_id": 377,
        "stop_code": 377,
        "name": "NUNAKA and PERRY SSW"
      },
      "geometry": {
        "type": "Point",
        "coordinates": [
          -149.771173,
          61.205735
        ]
      }
    },
    {
      "type": "Feature",
      "properties": {
        "stop_id": 378,
        "stop_code": 378,
        "name": "NUNAKA and STERLING NNW"
      },
      "geometry": {
        "type": "Point",
        "coordinates": [
          -149.773246,
          61.204049
        ]
      }
    },
    {
      "type": "Feature",
      "properties": {
        "stop_id": 379,
        "stop_code": 379,
        "name": "STERLING and TWINING ENE"
      },
      "geometry": {
        "type": "Point",
        "coordinates": [
          -149.776161,
          61.204593
        ]
      }
    },
    {
      "type": "Feature",
      "properties": {
        "stop_id": 380,
        "stop_code": 380,
        "name": "PENN and RADCLIFFE NNW"
      },
      "geometry": {
        "type": "Point",
        "coordinates": [
          -149.776316,
          61.202205
        ]
      }
    },
    {
      "type": "Feature",
      "properties": {
        "stop_id": 381,
        "stop_code": 381,
        "name": "PEMBROKE and COLLEGE SSW"
      },
      "geometry": {
        "type": "Point",
        "coordinates": [
          -149.778044,
          61.2
        ]
      }
    },
    {
      "type": "Feature",
      "properties": {
        "stop_id": 382,
        "stop_code": 382,
        "name": "BONIFACE and 24TH AVENUE SSW"
      },
      "geometry": {
        "type": "Point",
        "coordinates": [
          -149.778649,
          61.198325
        ]
      }
    },
    {
      "type": "Feature",
      "properties": {
        "stop_id": 385,
        "stop_code": 385,
        "name": "NORTHERN LIGHTS and BONIFACE WNW"
      },
      "geometry": {
        "type": "Point",
        "coordinates": [
          -149.780008,
          61.195391
        ]
      }
    },
    {
      "type": "Feature",
      "properties": {
        "stop_id": 386,
        "stop_code": 386,
        "name": "NORTHERN LIGHTS and WESLEYAN WNW"
      },
      "geometry": {
        "type": "Point",
        "coordinates": [
          -149.789999,
          61.195305
        ]
      }
    },
    {
      "type": "Feature",
      "properties": {
        "stop_id": 387,
        "stop_code": 387,
        "name": "NORTHERN LIGHTS and EAST HS ENE"
      },
      "geometry": {
        "type": "Point",
        "coordinates": [
          -149.801399,
          61.199066
        ]
      }
    },
    {
      "type": "Feature",
      "properties": {
        "stop_id": 388,
        "stop_code": 388,
        "name": "NORTHERN LIGHTS and BRAGAW WNW"
      },
      "geometry": {
        "type": "Point",
        "coordinates": [
          -149.809731,
          61.199085
        ]
      }
    },
    {
      "type": "Feature",
      "properties": {
        "stop_id": 391,
        "stop_code": 391,
        "name": "UAA DRIVE and NORTHERN LIGHTS SSW"
      },
      "geometry": {
        "type": "Point",
        "coordinates": [
          -149.827138,
          61.195275
        ]
      }
    },
    {
      "type": "Feature",
      "properties": {
        "stop_id": 392,
        "stop_code": 392,
        "name": "UAA DRIVE and PROVIDENCE NNW"
      },
      "geometry": {
        "type": "Point",
        "coordinates": [
          -149.823309,
          61.19092
        ]
      }
    },
    {
      "type": "Feature",
      "properties": {
        "stop_id": 396,
        "stop_code": 396,
        "name": "LAKE OTIS and PROVIDENCE NNE"
      },
      "geometry": {
        "type": "Point",
        "coordinates": [
          -149.83798,
          61.1887
        ]
      }
    },
    {
      "type": "Feature",
      "properties": {
        "stop_id": 397,
        "stop_code": 397,
        "name": "LAKE OTIS and CORNELL SSE"
      },
      "geometry": {
        "type": "Point",
        "coordinates": [
          -149.83806,
          61.19139
        ]
      }
    },
    {
      "type": "Feature",
      "properties": {
        "stop_id": 398,
        "stop_code": 398,
        "name": "NORTHERN LIGHTS and LAKE OTIS WNW"
      },
      "geometry": {
        "type": "Point",
        "coordinates": [
          -149.839334,
          61.195529
        ]
      }
    },
    {
      "type": "Feature",
      "properties": {
        "stop_id": 399,
        "stop_code": 399,
        "name": "NORTHERN LIGHTS and MAPLEWOOD WNW"
      },
      "geometry": {
        "type": "Point",
        "coordinates": [
          -149.846751,
          61.195527
        ]
      }
    },
    {
      "type": "Feature",
      "properties": {
        "stop_id": 400,
        "stop_code": 400,
        "name": "NORTHERN LIGHTS and GLENWOOD WNW"
      },
      "geometry": {
        "type": "Point",
        "coordinates": [
          -149.853672,
          61.195574
        ]
      }
    },
    {
      "type": "Feature",
      "properties": {
        "stop_id": 401,
        "stop_code": 401,
        "name": "NORTHERN LIGHTS and LATOUCHE WNW"
      },
      "geometry": {
        "type": "Point",
        "coordinates": [
          -149.861679,
          61.195309
        ]
      }
    },
    {
      "type": "Feature",
      "properties": {
        "stop_id": 402,
        "stop_code": 402,
        "name": "NORTHERN LIGHTS and GAMBELL ENE"
      },
      "geometry": {
        "type": "Point",
        "coordinates": [
          -149.869878,
          61.195373
        ]
      }
    },
    {
      "type": "Feature",
      "properties": {
        "stop_id": 403,
        "stop_code": 403,
        "name": "NORTHERN LIGHTS and DENALI ENE"
      },
      "geometry": {
        "type": "Point",
        "coordinates": [
          -149.875965,
          61.19537
        ]
      }
    },
    {
      "type": "Feature",
      "properties": {
        "stop_id": 404,
        "stop_code": 404,
        "name": "NORTHERN LIGHTS and CORDOVA WNW"
      },
      "geometry": {
        "type": "Point",
        "coordinates": [
          -149.879239,
          61.195355
        ]
      }
    },
    {
      "type": "Feature",
      "properties": {
        "stop_id": 405,
        "stop_code": 405,
        "name": "NORTHERN LIGHTS and A STREET WNW"
      },
      "geometry": {
        "type": "Point",
        "coordinates": [
          -149.883969,
          61.195352
        ]
      }
    },
    {
      "type": "Feature",
      "properties": {
        "stop_id": 406,
        "stop_code": 406,
        "name": "NORTHERN LIGHTS and C STREET WNW"
      },
      "geometry": {
        "type": "Point",
        "coordinates": [
          -149.8875,
          61.195404
        ]
      }
    },
    {
      "type": "Feature",
      "properties": {
        "stop_id": 407,
        "stop_code": 407,
        "name": "NORTHERN LIGHTS and BERING ENE"
      },
      "geometry": {
        "type": "Point",
        "coordinates": [
          -149.895129,
          61.195371
        ]
      }
    },
    {
      "type": "Feature",
      "properties": {
        "stop_id": 408,
        "stop_code": 408,
        "name": "NORTHERN LIGHTS and ARCTIC WNW"
      },
      "geometry": {
        "type": "Point",
        "coordinates": [
          -149.898736,
          61.19535
        ]
      }
    },
    {
      "type": "Feature",
      "properties": {
        "stop_id": 409,
        "stop_code": 409,
        "name": "NORTHERN LIGHTS and SPENARD WNW"
      },
      "geometry": {
        "type": "Point",
        "coordinates": [
          -149.906827,
          61.195379
        ]
      }
    },
    {
      "type": "Feature",
      "properties": {
        "stop_id": 410,
        "stop_code": 410,
        "name": "NORTHERN LIGHTS and MINNESOTA ENE"
      },
      "geometry": {
        "type": "Point",
        "coordinates": [
          -149.9106,
          61.195367
        ]
      }
    },
    {
      "type": "Feature",
      "properties": {
        "stop_id": 411,
        "stop_code": 411,
        "name": "MINNESOTA and 26TH AVENUE NNE"
      },
      "geometry": {
        "type": "Point",
        "coordinates": [
          -149.912798,
          61.197666
        ]
      }
    },
    {
      "type": "Feature",
      "properties": {
        "stop_id": 423,
        "stop_code": 423,
        "name": "9TH AVENUE and INGRA ESE"
      },
      "geometry": {
        "type": "Point",
        "coordinates": [
          -149.865558,
          61.213601
        ]
      }
    },
    {
      "type": "Feature",
      "properties": {
        "stop_id": 424,
        "stop_code": 424,
        "name": "9TH AVENUE and KARLUK ESE"
      },
      "geometry": {
        "type": "Point",
        "coordinates": [
          -149.861596,
          61.213578
        ]
      }
    },
    {
      "type": "Feature",
      "properties": {
        "stop_id": 425,
        "stop_code": 425,
        "name": "LATOUCHE and 10TH AVENUE SSW"
      },
      "geometry": {
        "type": "Point",
        "coordinates": [
          -149.860969,
          61.212475
        ]
      }
    },
    {
      "type": "Feature",
      "properties": {
        "stop_id": 426,
        "stop_code": 426,
        "name": "MEDFRA and 12TH AVENUE SSW"
      },
      "geometry": {
        "type": "Point",
        "coordinates": [
          -149.858863,
          61.210393
        ]
      }
    },
    {
      "type": "Feature",
      "properties": {
        "stop_id": 427,
        "stop_code": 427,
        "name": "MEDFRA and 14TH AVENUE NNW"
      },
      "geometry": {
        "type": "Point",
        "coordinates": [
          -149.858905,
          61.208837
        ]
      }
    },
    {
      "type": "Feature",
      "properties": {
        "stop_id": 429,
        "stop_code": 429,
        "name": "CHUGACH VIEW"
      },
      "geometry": {
        "type": "Point",
        "coordinates": [
          -149.857968,
          61.204811
        ]
      }
    },
    {
      "type": "Feature",
      "properties": {
        "stop_id": 434,
        "stop_code": 434,
        "name": "15TH AVENUE and MEDFRA ESE"
      },
      "geometry": {
        "type": "Point",
        "coordinates": [
          -149.858185,
          61.207575
        ]
      }
    },
    {
      "type": "Feature",
      "properties": {
        "stop_id": 437,
        "stop_code": 437,
        "name": "DEBARR and CHARTER CIR WSW"
      },
      "geometry": {
        "type": "Point",
        "coordinates": [
          -149.835445,
          61.207751
        ]
      }
    },
    {
      "type": "Feature",
      "properties": {
        "stop_id": 438,
        "stop_code": 438,
        "name": "ALASKA REGIONAL HOSPITAL S"
      },
      "geometry": {
        "type": "Point",
        "coordinates": [
          -149.826403,
          61.210158
        ]
      }
    },
    {
      "type": "Feature",
      "properties": {
        "stop_id": 441,
        "stop_code": 441,
        "name": "PENLAND PKWY and PAUL LALONE ESE"
      },
      "geometry": {
        "type": "Point",
        "coordinates": [
          -149.820791,
          61.215448
        ]
      }
    },
    {
      "type": "Feature",
      "properties": {
        "stop_id": 442,
        "stop_code": 442,
        "name": "PENLAND PKWY and KIDS CT ESE"
      },
      "geometry": {
        "type": "Point",
        "coordinates": [
          -149.817183,
          61.215555
        ]
      }
    },
    {
      "type": "Feature",
      "properties": {
        "stop_id": 443,
        "stop_code": 443,
        "name": "PENLAND PKWY and NORTHWAY ESE"
      },
      "geometry": {
        "type": "Point",
        "coordinates": [
          -149.812121,
          61.215805
        ]
      }
    },
    {
      "type": "Feature",
      "properties": {
        "stop_id": 445,
        "stop_code": 445,
        "name": "BRAGAW and 9TH AVENUE SSW"
      },
      "geometry": {
        "type": "Point",
        "coordinates": [
          -149.808459,
          61.213638
        ]
      }
    },
    {
      "type": "Feature",
      "properties": {
        "stop_id": 446,
        "stop_code": 446,
        "name": "BRAGAW and SAN JEROMINO NNW"
      },
      "geometry": {
        "type": "Point",
        "coordinates": [
          -149.808463,
          61.211849
        ]
      }
    },
    {
      "type": "Feature",
      "properties": {
        "stop_id": 447,
        "stop_code": 447,
        "name": "DEBARR and BRAGAW ESE"
      },
      "geometry": {
        "type": "Point",
        "coordinates": [
          -149.807229,
          61.209575
        ]
      }
    },
    {
      "type": "Feature",
      "properties": {
        "stop_id": 448,
        "stop_code": 448,
        "name": "DEBARR and HOYT ESE"
      },
      "geometry": {
        "type": "Point",
        "coordinates": [
          -149.799486,
          61.209582
        ]
      }
    },
    {
      "type": "Feature",
      "properties": {
        "stop_id": 449,
        "stop_code": 449,
        "name": "DEBARR and PINE WSW"
      },
      "geometry": {
        "type": "Point",
        "coordinates": [
          -149.793936,
          61.209584
        ]
      }
    },
    {
      "type": "Feature",
      "properties": {
        "stop_id": 450,
        "stop_code": 450,
        "name": "DEBARR and L SELKREGG WSW"
      },
      "geometry": {
        "type": "Point",
        "coordinates": [
          -149.786848,
          61.209583
        ]
      }
    },
    {
      "type": "Feature",
      "properties": {
        "stop_id": 451,
        "stop_code": 451,
        "name": "DEBARR and BONIFACE WSW"
      },
      "geometry": {
        "type": "Point",
        "coordinates": [
          -149.779258,
          61.209648
        ]
      }
    },
    {
      "type": "Feature",
      "properties": {
        "stop_id": 452,
        "stop_code": 452,
        "name": "DEBARR and BONIFACE ESE"
      },
      "geometry": {
        "type": "Point",
        "coordinates": [
          -149.775916,
          61.209635
        ]
      }
    },
    {
      "type": "Feature",
      "properties": {
        "stop_id": 453,
        "stop_code": 453,
        "name": "DEBARR and BUCKNER ESE"
      },
      "geometry": {
        "type": "Point",
        "coordinates": [
          -149.770823,
          61.20965
        ]
      }
    },
    {
      "type": "Feature",
      "properties": {
        "stop_id": 454,
        "stop_code": 454,
        "name": "DEBARR and ATKINSON ESE"
      },
      "geometry": {
        "type": "Point",
        "coordinates": [
          -149.766195,
          61.209648
        ]
      }
    },
    {
      "type": "Feature",
      "properties": {
        "stop_id": 455,
        "stop_code": 455,
        "name": "BEAVER and DEBARR SSW"
      },
      "geometry": {
        "type": "Point",
        "coordinates": [
          -149.762601,
          61.208796
        ]
      }
    },
    {
      "type": "Feature",
      "properties": {
        "stop_id": 456,
        "stop_code": 456,
        "name": "BEAVER and 16TH AVENUE SSW"
      },
      "geometry": {
        "type": "Point",
        "coordinates": [
          -149.762543,
          61.205681
        ]
      }
    },
    {
      "type": "Feature",
      "properties": {
        "stop_id": 457,
        "stop_code": 457,
        "name": "BEAVER and CHENEY LAKE W"
      },
      "geometry": {
        "type": "Point",
        "coordinates": [
          -149.762553,
          61.202156
        ]
      }
    },
    {
      "type": "Feature",
      "properties": {
        "stop_id": 458,
        "stop_code": 458,
        "name": "BAXTER and COLGATE SSW"
      },
      "geometry": {
        "type": "Point",
        "coordinates": [
          -149.763508,
          61.198891
        ]
      }
    },
    {
      "type": "Feature",
      "properties": {
        "stop_id": 459,
        "stop_code": 459,
        "name": "BAXTER and CAMROSE SSW"
      },
      "geometry": {
        "type": "Point",
        "coordinates": [
          -149.763551,
          61.196326
        ]
      }
    },
    {
      "type": "Feature",
      "properties": {
        "stop_id": 460,
        "stop_code": 460,
        "name": "BAXTER and NORTHERN LIGHTS SSW"
      },
      "geometry": {
        "type": "Point",
        "coordinates": [
          -149.763504,
          61.194653
        ]
      }
    },
    {
      "type": "Feature",
      "properties": {
        "stop_id": 461,
        "stop_code": 461,
        "name": "BAXTER and BAXTER ELEM WEST"
      },
      "geometry": {
        "type": "Point",
        "coordinates": [
          -149.763488,
          61.193201
        ]
      }
    },
    {
      "type": "Feature",
      "properties": {
        "stop_id": 462,
        "stop_code": 462,
        "name": "BAXTER and 32ND AVENUE SSW"
      },
      "geometry": {
        "type": "Point",
        "coordinates": [
          -149.763472,
          61.191352
        ]
      }
    },
    {
      "type": "Feature",
      "properties": {
        "stop_id": 463,
        "stop_code": 463,
        "name": "BAXTER and 34TH AVENUE SSW"
      },
      "geometry": {
        "type": "Point",
        "coordinates": [
          -149.763469,
          61.18975
        ]
      }
    },
    {
      "type": "Feature",
      "properties": {
        "stop_id": 464,
        "stop_code": 464,
        "name": "BAXTER and 41ST AVENUE SSE"
      },
      "geometry": {
        "type": "Point",
        "coordinates": [
          -149.763225,
          61.183855
        ]
      }
    },
    {
      "type": "Feature",
      "properties": {
        "stop_id": 465,
        "stop_code": 465,
        "name": "BAXTER and 41ST AVENUE SSW"
      },
      "geometry": {
        "type": "Point",
        "coordinates": [
          -149.763516,
          61.18369
        ]
      }
    },
    {
      "type": "Feature",
      "properties": {
        "stop_id": 467,
        "stop_code": 467,
        "name": "TUDOR and BAXTER WNW"
      },
      "geometry": {
        "type": "Point",
        "coordinates": [
          -149.764611,
          61.18092
        ]
      }
    },
    {
      "type": "Feature",
      "properties": {
        "stop_id": 479,
        "stop_code": 479,
        "name": "PROVIDENCE and ELMORE WSW"
      },
      "geometry": {
        "type": "Point",
        "coordinates": [
          -149.810993,
          61.188673
        ]
      }
    },
    {
      "type": "Feature",
      "properties": {
        "stop_id": 489,
        "stop_code": 489,
        "name": "BAXTER and TUDOR NNE"
      },
      "geometry": {
        "type": "Point",
        "coordinates": [
          -149.763267,
          61.181325
        ]
      }
    },
    {
      "type": "Feature",
      "properties": {
        "stop_id": 490,
        "stop_code": 490,
        "name": "BAXTER and HAMPTON SSE"
      },
      "geometry": {
        "type": "Point",
        "coordinates": [
          -149.763285,
          61.185699
        ]
      }
    },
    {
      "type": "Feature",
      "properties": {
        "stop_id": 491,
        "stop_code": 491,
        "name": "BAXTER and VILLAGE NNE"
      },
      "geometry": {
        "type": "Point",
        "coordinates": [
          -149.763296,
          61.188302
        ]
      }
    },
    {
      "type": "Feature",
      "properties": {
        "stop_id": 492,
        "stop_code": 492,
        "name": "BAXTER and 35TH AVENUE NNE"
      },
      "geometry": {
        "type": "Point",
        "coordinates": [
          -149.763281,
          61.189606
        ]
      }
    },
    {
      "type": "Feature",
      "properties": {
        "stop_id": 493,
        "stop_code": 493,
        "name": "BAXTER and 32ND AVENUE NNE"
      },
      "geometry": {
        "type": "Point",
        "coordinates": [
          -149.763285,
          61.191899
        ]
      }
    },
    {
      "type": "Feature",
      "properties": {
        "stop_id": 494,
        "stop_code": 494,
        "name": "BAXTER and BAXTER ELEM EAST"
      },
      "geometry": {
        "type": "Point",
        "coordinates": [
          -149.763275,
          61.193903
        ]
      }
    },
    {
      "type": "Feature",
      "properties": {
        "stop_id": 495,
        "stop_code": 495,
        "name": "BAXTER and NORTHERN LIGHTS NNE"
      },
      "geometry": {
        "type": "Point",
        "coordinates": [
          -149.763246,
          61.195865
        ]
      }
    },
    {
      "type": "Feature",
      "properties": {
        "stop_id": 496,
        "stop_code": 496,
        "name": "BAXTER and PROSPERITY NNE"
      },
      "geometry": {
        "type": "Point",
        "coordinates": [
          -149.763326,
          61.199555
        ]
      }
    },
    {
      "type": "Feature",
      "properties": {
        "stop_id": 497,
        "stop_code": 497,
        "name": "BEAVER and 1925 BEAVER PL EAST"
      },
      "geometry": {
        "type": "Point",
        "coordinates": [
          -149.762326,
          61.203001
        ]
      }
    },
    {
      "type": "Feature",
      "properties": {
        "stop_id": 498,
        "stop_code": 498,
        "name": "BEAVER and 16TH AVENUE SSE"
      },
      "geometry": {
        "type": "Point",
        "coordinates": [
          -149.762356,
          61.205915
        ]
      }
    },
    {
      "type": "Feature",
      "properties": {
        "stop_id": 499,
        "stop_code": 499,
        "name": "BEAVER and DEBARR SSE"
      },
      "geometry": {
        "type": "Point",
        "coordinates": [
          -149.762333,
          61.208966
        ]
      }
    },
    {
      "type": "Feature",
      "properties": {
        "stop_id": 501,
        "stop_code": 501,
        "name": "DEBARR and NUNAKA ENE"
      },
      "geometry": {
        "type": "Point",
        "coordinates": [
          -149.768728,
          61.209848
        ]
      }
    },
    {
      "type": "Feature",
      "properties": {
        "stop_id": 502,
        "stop_code": 502,
        "name": "DEBARR and BONIFACE ENE"
      },
      "geometry": {
        "type": "Point",
        "coordinates": [
          -149.774826,
          61.209805
        ]
      }
    },
    {
      "type": "Feature",
      "properties": {
        "stop_id": 503,
        "stop_code": 503,
        "name": "DEBARR and BONIFACE WNW"
      },
      "geometry": {
        "type": "Point",
        "coordinates": [
          -149.779749,
          61.209853
        ]
      }
    },
    {
      "type": "Feature",
      "properties": {
        "stop_id": 504,
        "stop_code": 504,
        "name": "DEBARR and L SELKREGG WNW"
      },
      "geometry": {
        "type": "Point",
        "coordinates": [
          -149.786999,
          61.209823
        ]
      }
    },
    {
      "type": "Feature",
      "properties": {
        "stop_id": 505,
        "stop_code": 505,
        "name": "DEBARR and PINE WNW"
      },
      "geometry": {
        "type": "Point",
        "coordinates": [
          -149.79462,
          61.209827
        ]
      }
    },
    {
      "type": "Feature",
      "properties": {
        "stop_id": 506,
        "stop_code": 506,
        "name": "DEBARR and HOYT WNW"
      },
      "geometry": {
        "type": "Point",
        "coordinates": [
          -149.800893,
          61.209819
        ]
      }
    },
    {
      "type": "Feature",
      "properties": {
        "stop_id": 507,
        "stop_code": 507,
        "name": "DEBARR and BRAGAW ENE"
      },
      "geometry": {
        "type": "Point",
        "coordinates": [
          -149.805476,
          61.209818
        ]
      }
    },
    {
      "type": "Feature",
      "properties": {
        "stop_id": 508,
        "stop_code": 508,
        "name": "BRAGAW and DEBARR NNE"
      },
      "geometry": {
        "type": "Point",
        "coordinates": [
          -149.80811,
          61.210244
        ]
      }
    },
    {
      "type": "Feature",
      "properties": {
        "stop_id": 509,
        "stop_code": 509,
        "name": "BRAGAW and SAN CLEMNTSN NNE"
      },
      "geometry": {
        "type": "Point",
        "coordinates": [
          -149.808149,
          61.213233
        ]
      }
    },
    {
      "type": "Feature",
      "properties": {
        "stop_id": 511,
        "stop_code": 511,
        "name": "PENLAND PKWY and BRAGAW WNW"
      },
      "geometry": {
        "type": "Point",
        "coordinates": [
          -149.810846,
          61.216044
        ]
      }
    },
    {
      "type": "Feature",
      "properties": {
        "stop_id": 513,
        "stop_code": 513,
        "name": "PENLAND PKWY and KIDS CT WNW"
      },
      "geometry": {
        "type": "Point",
        "coordinates": [
          -149.818406,
          61.215584
        ]
      }
    },
    {
      "type": "Feature",
      "properties": {
        "stop_id": 514,
        "stop_code": 514,
        "name": "PENLAND PKWY and PAUL LALONE N"
      },
      "geometry": {
        "type": "Point",
        "coordinates": [
          -149.821331,
          61.215543
        ]
      }
    },
    {
      "type": "Feature",
      "properties": {
        "stop_id": 515,
        "stop_code": 515,
        "name": "AIRPORT HGTS and PENLAND SSW"
      },
      "geometry": {
        "type": "Point",
        "coordinates": [
          -149.824577,
          61.215012
        ]
      }
    },
    {
      "type": "Feature",
      "properties": {
        "stop_id": 517,
        "stop_code": 517,
        "name": "ALASKA REGIONAL HOSPITAL N"
      },
      "geometry": {
        "type": "Point",
        "coordinates": [
          -149.82622,
          61.210218
        ]
      }
    },
    {
      "type": "Feature",
      "properties": {
        "stop_id": 518,
        "stop_code": 518,
        "name": "DEBARR and ALASKA REGIONAL DR WNW"
      },
      "geometry": {
        "type": "Point",
        "coordinates": [
          -149.831826,
          61.209446
        ]
      }
    },
    {
      "type": "Feature",
      "properties": {
        "stop_id": 519,
        "stop_code": 519,
        "name": "15TH AVENUE and LAKE OTIS WNW"
      },
      "geometry": {
        "type": "Point",
        "coordinates": [
          -149.83964,
          61.207825
        ]
      }
    },
    {
      "type": "Feature",
      "properties": {
        "stop_id": 522,
        "stop_code": 522,
        "name": "MEDFRA and 16TH AVENUE SSW"
      },
      "geometry": {
        "type": "Point",
        "coordinates": [
          -149.858704,
          61.205965
        ]
      }
    },
    {
      "type": "Feature",
      "properties": {
        "stop_id": 524,
        "stop_code": 524,
        "name": "ORCA and 19TH AVENUE NNW"
      },
      "geometry": {
        "type": "Point",
        "coordinates": [
          -149.855264,
          61.204077
        ]
      }
    },
    {
      "type": "Feature",
      "properties": {
        "stop_id": 525,
        "stop_code": 525,
        "name": "CHUGACH MANOR"
      },
      "geometry": {
        "type": "Point",
        "coordinates": [
          -149.85886,
          61.203668
        ]
      }
    },
    {
      "type": "Feature",
      "properties": {
        "stop_id": 526,
        "stop_code": 526,
        "name": "KARLUK and 19TH AVENUE NNE"
      },
      "geometry": {
        "type": "Point",
        "coordinates": [
          -149.861335,
          61.204305
        ]
      }
    },
    {
      "type": "Feature",
      "properties": {
        "stop_id": 527,
        "stop_code": 527,
        "name": "MEDFRA and 16TH AVENUE NNE"
      },
      "geometry": {
        "type": "Point",
        "coordinates": [
          -149.858703,
          61.206623
        ]
      }
    },
    {
      "type": "Feature",
      "properties": {
        "stop_id": 528,
        "stop_code": 528,
        "name": "MEDFRA and 14TH AVENUE SSE"
      },
      "geometry": {
        "type": "Point",
        "coordinates": [
          -149.858674,
          61.208605
        ]
      }
    },
    {
      "type": "Feature",
      "properties": {
        "stop_id": 529,
        "stop_code": 529,
        "name": "MEDFRA and 12TH AVENUE NNE"
      },
      "geometry": {
        "type": "Point",
        "coordinates": [
          -149.858688,
          61.210945
        ]
      }
    },
    {
      "type": "Feature",
      "properties": {
        "stop_id": 530,
        "stop_code": 530,
        "name": "LATOUCHE and 10TH AVENUE NNE"
      },
      "geometry": {
        "type": "Point",
        "coordinates": [
          -149.860645,
          61.212847
        ]
      }
    },
    {
      "type": "Feature",
      "properties": {
        "stop_id": 531,
        "stop_code": 531,
        "name": "9TH AVENUE and KARLUK ENE"
      },
      "geometry": {
        "type": "Point",
        "coordinates": [
          -149.861644,
          61.21369
        ]
      }
    },
    {
      "type": "Feature",
      "properties": {
        "stop_id": 532,
        "stop_code": 532,
        "name": "9TH AVENUE and INGRA WNW"
      },
      "geometry": {
        "type": "Point",
        "coordinates": [
          -149.867725,
          61.213715
        ]
      }
    },
    {
      "type": "Feature",
      "properties": {
        "stop_id": 535,
        "stop_code": 535,
        "name": "CORDOVA and 8TH AVENUE SSE"
      },
      "geometry": {
        "type": "Point",
        "coordinates": [
          -149.879049,
          61.21454
        ]
      }
    },
    {
      "type": "Feature",
      "properties": {
        "stop_id": 549,
        "stop_code": 549,
        "name": "CORDOVA and 10TH AVENUE SSW"
      },
      "geometry": {
        "type": "Point",
        "coordinates": [
          -149.879317,
          61.212347
        ]
      }
    },
    {
      "type": "Feature",
      "properties": {
        "stop_id": 550,
        "stop_code": 550,
        "name": "CORDOVA and 11TH AVENUE SSW"
      },
      "geometry": {
        "type": "Point",
        "coordinates": [
          -149.879329,
          61.211371
        ]
      }
    },
    {
      "type": "Feature",
      "properties": {
        "stop_id": 551,
        "stop_code": 551,
        "name": "13TH AVENUE and CORDOVA ESE"
      },
      "geometry": {
        "type": "Point",
        "coordinates": [
          -149.878547,
          61.209611
        ]
      }
    },
    {
      "type": "Feature",
      "properties": {
        "stop_id": 552,
        "stop_code": 552,
        "name": "13TH AVENUE and EAGLE ESE"
      },
      "geometry": {
        "type": "Point",
        "coordinates": [
          -149.87439,
          61.20961
        ]
      }
    },
    {
      "type": "Feature",
      "properties": {
        "stop_id": 553,
        "stop_code": 553,
        "name": "13TH AVENUE and GAMBELL ESE"
      },
      "geometry": {
        "type": "Point",
        "coordinates": [
          -149.870094,
          61.209604
        ]
      }
    },
    {
      "type": "Feature",
      "properties": {
        "stop_id": 554,
        "stop_code": 554,
        "name": "15TH AVENUE and GAMBELL ESE"
      },
      "geometry": {
        "type": "Point",
        "coordinates": [
          -149.869658,
          61.207584
        ]
      }
    },
    {
      "type": "Feature",
      "properties": {
        "stop_id": 555,
        "stop_code": 555,
        "name": "15TH AVENUE and INGRA ESE"
      },
      "geometry": {
        "type": "Point",
        "coordinates": [
          -149.865505,
          61.207623
        ]
      }
    },
    {
      "type": "Feature",
      "properties": {
        "stop_id": 556,
        "stop_code": 556,
        "name": "15TH AVENUE and KARLUK ESE"
      },
      "geometry": {
        "type": "Point",
        "coordinates": [
          -149.862068,
          61.207618
        ]
      }
    },
    {
      "type": "Feature",
      "properties": {
        "stop_id": 558,
        "stop_code": 558,
        "name": "15TH AVENUE and ORCA ESE"
      },
      "geometry": {
        "type": "Point",
        "coordinates": [
          -149.854073,
          61.207589
        ]
      }
    },
    {
      "type": "Feature",
      "properties": {
        "stop_id": 559,
        "stop_code": 559,
        "name": "15TH AVENUE and SITKA ESE"
      },
      "geometry": {
        "type": "Point",
        "coordinates": [
          -149.844498,
          61.207631
        ]
      }
    },
    {
      "type": "Feature",
      "properties": {
        "stop_id": 564,
        "stop_code": 564,
        "name": "SUNRISE and 18TH AVENUE SSW"
      },
      "geometry": {
        "type": "Point",
        "coordinates": [
          -149.82642,
          61.203896
        ]
      }
    },
    {
      "type": "Feature",
      "properties": {
        "stop_id": 565,
        "stop_code": 565,
        "name": "SUNRISE and 20TH AVENUE NNW"
      },
      "geometry": {
        "type": "Point",
        "coordinates": [
          -149.827029,
          61.202549
        ]
      }
    },
    {
      "type": "Feature",
      "properties": {
        "stop_id": 566,
        "stop_code": 566,
        "name": "20TH AVENUE and ALDER WNW"
      },
      "geometry": {
        "type": "Point",
        "coordinates": [
          -149.829726,
          61.202562
        ]
      }
    },
    {
      "type": "Feature",
      "properties": {
        "stop_id": 567,
        "stop_code": 567,
        "name": "20TH AVENUE and LOGAN WNW"
      },
      "geometry": {
        "type": "Point",
        "coordinates": [
          -149.833829,
          61.202561
        ]
      }
    },
    {
      "type": "Feature",
      "properties": {
        "stop_id": 568,
        "stop_code": 568,
        "name": "20TH AVENUE and TALKEETNA WNW"
      },
      "geometry": {
        "type": "Point",
        "coordinates": [
          -149.837104,
          61.202478
        ]
      }
    },
    {
      "type": "Feature",
      "properties": {
        "stop_id": 569,
        "stop_code": 569,
        "name": "LAKE OTIS and MAPLE SSW"
      },
      "geometry": {
        "type": "Point",
        "coordinates": [
          -149.838436,
          61.19794
        ]
      }
    },
    {
      "type": "Feature",
      "properties": {
        "stop_id": 577,
        "stop_code": 577,
        "name": "ELMORE and SHARON GAGNON SSW"
      },
      "geometry": {
        "type": "Point",
        "coordinates": [
          -149.80895,
          61.18492
        ]
      }
    },
    {
      "type": "Feature",
      "properties": {
        "stop_id": 580,
        "stop_code": 580,
        "name": "TUDOR and ELMORE ESE"
      },
      "geometry": {
        "type": "Point",
        "coordinates": [
          -149.805068,
          61.180655
        ]
      }
    },
    {
      "type": "Feature",
      "properties": {
        "stop_id": 582,
        "stop_code": 582,
        "name": "VANCE and TUDOR NNE"
      },
      "geometry": {
        "type": "Point",
        "coordinates": [
          -149.792052,
          61.181226
        ]
      }
    },
    {
      "type": "Feature",
      "properties": {
        "stop_id": 583,
        "stop_code": 583,
        "name": "43RD AVENUE and CHESS ESE"
      },
      "geometry": {
        "type": "Point",
        "coordinates": [
          -149.787251,
          61.181696
        ]
      }
    },
    {
      "type": "Feature",
      "properties": {
        "stop_id": 584,
        "stop_code": 584,
        "name": "CHECKMATE and 42ND AVENUE NNE"
      },
      "geometry": {
        "type": "Point",
        "coordinates": [
          -149.785589,
          61.182804
        ]
      }
    },
    {
      "type": "Feature",
      "properties": {
        "stop_id": 585,
        "stop_code": 585,
        "name": "CHECKMATE and 41ST AVENUE NNE"
      },
      "geometry": {
        "type": "Point",
        "coordinates": [
          -149.784836,
          61.18446
        ]
      }
    },
    {
      "type": "Feature",
      "properties": {
        "stop_id": 586,
        "stop_code": 586,
        "name": "CHECKMATE and SYDNEY KAY NNE"
      },
      "geometry": {
        "type": "Point",
        "coordinates": [
          -149.784815,
          61.186986
        ]
      }
    },