{
  "type": "FeatureCollection",
  "features": [
    {
      "type": "Feature",
      "properties": {
        "name": "6TH AVENUE & C STREET ESE",
        "stop_id": "2",
        "stop_code": "2"
      },
      "geometry": {
        "type": "Point",
        "coordinates": [
          -149.886091,
          61.216517
        ]
      }
    },
    {
      "type": "Feature",
      "properties": {
        "name": "C STREET & 7TH AVENUE SSW",
        "stop_id": "3",
        "stop_code": "3"
      },
      "geometry": {
        "type": "Point",
        "coordinates": [
          -149.887389,
          61.215112
        ]
      }
    },
    {
      "type": "Feature",
      "properties": {
        "name": "C STREET & 10TH AVENUE SSW",
        "stop_id": "4",
        "stop_code": "4"
      },
      "geometry": {
        "type": "Point",
        "coordinates": [
          -149.887517,
          61.212407
        ]
      }
    },
    {
      "type": "Feature",
      "properties": {
        "name": "C STREET & 12TH AVENUE SSW",
        "stop_id": "5",
        "stop_code": "5"
      },
      "geometry": {
        "type": "Point",
        "coordinates": [
          -149.887484,
          61.210297
        ]
      }
    },
    {
      "type": "Feature",
      "properties": {
        "name": "C STREET & 14TH AVENUE NNW",
        "stop_id": "6",
        "stop_code": "6"
      },
      "geometry": {
        "type": "Point",
        "coordinates": [
          -149.887494,
          61.20868
        ]
      }
    },
    {
      "type": "Feature",
      "properties": {
        "name": "C STREET & 16TH AVENUE SSW",
        "stop_id": "7",
        "stop_code": "7"
      },
      "geometry": {
        "type": "Point",
        "coordinates": [
          -149.887536,
          61.20577
        ]
      }
    },
    {
      "type": "Feature",
      "properties": {
        "name": "C STREET & 19TH AVENUE NNW",
        "stop_id": "8",
        "stop_code": "8"
      },
      "geometry": {
        "type": "Point",
        "coordinates": [
          -149.887627,
          61.203688
        ]
      }
    },
    {
      "type": "Feature",
      "properties": {
        "name": "C STREET & 22ND AVENUE NNW",
        "stop_id": "9",
        "stop_code": "9"
      },
      "geometry": {
        "type": "Point",
        "coordinates": [
          -149.88753,
          61.20084
        ]
      }
    },
    {
      "type": "Feature",
      "properties": {
        "name": "C STREET & FIREWEED SSW",
        "stop_id": "10",
        "stop_code": "10"
      },
      "geometry": {
        "type": "Point",
        "coordinates": [
          -149.88703,
          61.197747
        ]
      }
    },
    {
      "type": "Feature",
      "properties": {
        "name": "C STREET & BENSON NNW",
        "stop_id": "11",
        "stop_code": "11"
      },
      "geometry": {
        "type": "Point",
        "coordinates": [
          -149.886782,
          61.194452
        ]
      }
    },
    {
      "type": "Feature",
      "properties": {
        "name": "C STREET & 31ST AVENUE NNW",
        "stop_id": "12",
        "stop_code": "12"
      },
      "geometry": {
        "type": "Point",
        "coordinates": [
          -149.886782,
          61.19271
        ]
      }
    },
    {
      "type": "Feature",
      "properties": {
        "name": "36TH AVENUE & C STREET ESE",
        "stop_id": "14",
        "stop_code": "14"
      },
      "geometry": {
        "type": "Point",
        "coordinates": [
          -149.885213,
          61.187997
        ]
      }
    },
    {
      "type": "Feature",
      "properties": {
        "name": "36TH AVENUE & A STREET ESE",
        "stop_id": "15",
        "stop_code": "15"
      },
      "geometry": {
        "type": "Point",
        "coordinates": [
          -149.881568,
          61.188018
        ]
      }
    },
    {
      "type": "Feature",
      "properties": {
        "name": "36TH AVENUE & DENALI WSW",
        "stop_id": "16",
        "stop_code": "16"
      },
      "geometry": {
        "type": "Point",
        "coordinates": [
          -149.877381,
          61.187985
        ]
      }
    },
    {
      "type": "Feature",
      "properties": {
        "name": "36TH AVENUE & OLD SEWARD WSW",
        "stop_id": "17",
        "stop_code": "17"
      },
      "geometry": {
        "type": "Point",
        "coordinates": [
          -149.869002,
          61.187998
        ]
      }
    },
    {
      "type": "Feature",
      "properties": {
        "name": "36TH AVENUE & NEW SEWARD ESE",
        "stop_id": "18",
        "stop_code": "18"
      },
      "geometry": {
        "type": "Point",
        "coordinates": [
          -149.862833,
          61.187973
        ]
      }
    },
    {
      "type": "Feature",
      "properties": {
        "name": "36TH AVENUE & LATOUCHE WSW",
        "stop_id": "19",
        "stop_code": "19"
      },
      "geometry": {
        "type": "Point",
        "coordinates": [
          -149.859,
          61.188023
        ]
      }
    },
    {
      "type": "Feature",
      "properties": {
        "name": "36TH AVENUE & LOCARNO ESE",
        "stop_id": "20",
        "stop_code": "20"
      },
      "geometry": {
        "type": "Point",
        "coordinates": [
          -149.855015,
          61.188032
        ]
      }
    },
    {
      "type": "Feature",
      "properties": {
        "name": "36TH AVENUE & MACINNES ESE",
        "stop_id": "21",
        "stop_code": "21"
      },
      "geometry": {
        "type": "Point",
        "coordinates": [
          -149.848567,
          61.187997
        ]
      }
    },
    {
      "type": "Feature",
      "properties": {
        "name": "LAKE OTIS & 36TH AVENUE SSW",
        "stop_id": "23",
        "stop_code": "23"
      },
      "geometry": {
        "type": "Point",
        "coordinates": [
          -149.838461,
          61.187323
        ]
      }
    },
    {
      "type": "Feature",
      "properties": {
        "name": "LAKE OTIS & 38TH AVENUE SSW",
        "stop_id": "24",
        "stop_code": "24"
      },
      "geometry": {
        "type": "Point",
        "coordinates": [
          -149.838381,
          61.185758
        ]
      }
    },
    {
      "type": "Feature",
      "properties": {
        "name": "LAKE OTIS & 42ND AVENUE NNW",
        "stop_id": "25",
        "stop_code": "25"
      },
      "geometry": {
        "type": "Point",
        "coordinates": [
          -149.838371,
          61.182748
        ]
      }
    },
    {
      "type": "Feature",
      "properties": {
        "name": "LAKE OTIS & TUDOR SSW",
        "stop_id": "26",
        "stop_code": "26"
      },
      "geometry": {
        "type": "Point",
        "coordinates": [
          -149.838407,
          61.179662
        ]
      }
    },
    {
      "type": "Feature",
      "properties": {
        "name": "LAKE OTIS & HOMESTEAD SSW",
        "stop_id": "27",
        "stop_code": "27"
      },
      "geometry": {
        "type": "Point",
        "coordinates": [
          -149.838305,
          61.177118
        ]
      }
    },
    {
      "type": "Feature",
      "properties": {
        "name": "LAKE OTIS & WALDRON SSW",
        "stop_id": "28",
        "stop_code": "28"
      },
      "geometry": {
        "type": "Point",
        "coordinates": [
          -149.838322,
          61.174359
        ]
      }
    },
    {
      "type": "Feature",
      "properties": {
        "name": "LAKE OTIS & 54TH AVENUE SSW",
        "stop_id": "29",
        "stop_code": "29"
      },
      "geometry": {
        "type": "Point",
        "coordinates": [
          -149.838337,
          61.171577
        ]
      }
    },
    {
      "type": "Feature",
      "properties": {
        "name": "LAKE OTIS & PAGO PAGO NNW",
        "stop_id": "30",
        "stop_code": "30"
      },
      "geometry": {
        "type": "Point",
        "coordinates": [
          -149.838328,
          61.168868
        ]
      }
    },
    {
      "type": "Feature",
      "properties": {
        "name": "LAKE OTIS & DOWLING SSW",
        "stop_id": "31",
        "stop_code": "31"
      },
      "geometry": {
        "type": "Point",
        "coordinates": [
          -149.838429,
          61.165866
        ]
      }
    },
    {
      "type": "Feature",
      "properties": {
        "name": "LAKE OTIS & 63RD AVENUE SSW",
        "stop_id": "32",
        "stop_code": "32"
      },
      "geometry": {
        "type": "Point",
        "coordinates": [
          -149.835965,
          61.163457
        ]
      }
    },
    {
      "type": "Feature",
      "properties": {
        "name": "LAKE OTIS & 68TH AVENUE SSW",
        "stop_id": "33",
        "stop_code": "33"
      },
      "geometry": {
        "type": "Point",
        "coordinates": [
          -149.834451,
          61.158822
        ]
      }
    },
    {
      "type": "Feature",
      "properties": {
        "name": "LAKE OTIS & 72ND AVENUE SSW",
        "stop_id": "34",
        "stop_code": "34"
      },
      "geometry": {
        "type": "Point",
        "coordinates": [
          -149.83444,
          61.155016
        ]
      }
    },
    {
      "type": "Feature",
      "properties": {
        "name": "LAKE OTIS & LORE SSW",
        "stop_id": "35",
        "stop_code": "35"
      },
      "geometry": {
        "type": "Point",
        "coordinates": [
          -149.834421,
          61.151458
        ]
      }
    },
    {
      "type": "Feature",
      "properties": {
        "name": "LAKE OTIS & 80TH AVENUE SSW",
        "stop_id": "36",
        "stop_code": "36"
      },
      "geometry": {
        "type": "Point",
        "coordinates": [
          -149.834409,
          61.147558
        ]
      }
    },
    {
      "type": "Feature",
      "properties": {
        "name": "LAKE OTIS & 85TH AVENUE NNW",
        "stop_id": "37",
        "stop_code": "37"
      },
      "geometry": {
        "type": "Point",
        "coordinates": [
          -149.834352,
          61.14402
        ]
      }
    },
    {
      "type": "Feature",
      "properties": {
        "name": "LAKE OTIS & 88TH AVENUE SSW",
        "stop_id": "38",
        "stop_code": "38"
      },
      "geometry": {
        "type": "Point",
        "coordinates": [
          -149.834389,
          61.140783
        ]
      }
    },
    {
      "type": "Feature",
      "properties": {
        "name": "INDEPENDENCE & SENTRY NNW",
        "stop_id": "43",
        "stop_code": "43"
      },
      "geometry": {
        "type": "Point",
        "coordinates": [
          -149.841718,
          61.134678
        ]
      }
    },
    {
      "type": "Feature",
      "properties": {
        "name": "INDEPENDENCE & VANGUARD SSW",
        "stop_id": "44",
        "stop_code": "44"
      },
      "geometry": {
        "type": "Point",
        "coordinates": [
          -149.845513,
          61.131886
        ]
      }
    },
    {
      "type": "Feature",
      "properties": {
        "name": "INDEPENDENCE & COLONY SSW",
        "stop_id": "45",
        "stop_code": "45"
      },
      "geometry": {
        "type": "Point",
        "coordinates": [
          -149.845924,
          61.130331
        ]
      }
    },
    {
      "type": "Feature",
      "properties": {
        "name": "JAMESTOWN & INDEPENDENCE SSW",
        "stop_id": "46",
        "stop_code": "46"
      },
      "geometry": {
        "type": "Point",
        "coordinates": [
          -149.845565,
          61.128495
        ]
      }
    },
    {
      "type": "Feature",
      "properties": {
        "name": "JAMESTOWN & MRTHAS VNYRD NNW",
        "stop_id": "47",
        "stop_code": "47"
      },
      "geometry": {
        "type": "Point",
        "coordinates": [
          -149.847048,
          61.127568
        ]
      }
    },
    {
      "type": "Feature",
      "properties": {
        "name": "JAMESTOWN & ELCADORE SSW",
        "stop_id": "48",
        "stop_code": "48"
      },
      "geometry": {
        "type": "Point",
        "coordinates": [
          -149.848115,
          61.12522
        ]
      }
    },
    {
      "type": "Feature",
      "properties": {
        "name": "COMMODORE & ELCADORE NNW",
        "stop_id": "49",
        "stop_code": "49"
      },
      "geometry": {
        "type": "Point",
        "coordinates": [
          -149.851073,
          61.123773
        ]
      }
    },
    {
      "type": "Feature",
      "properties": {
        "name": "O'MALLEY & BRAYTON WNW",
        "stop_id": "50",
        "stop_code": "50"
      },
      "geometry": {
        "type": "Point",
        "coordinates": [
          -149.85608,
          61.123212
        ]
      }
    },
    {
      "type": "Feature",
      "properties": {
        "name": "OLD SEWARD & O'MALLEY NNE",
        "stop_id": "51",
        "stop_code": "51"
      },
      "geometry": {
        "type": "Point",
        "coordinates": [
          -149.863409,
          61.123595
        ]
      }
    },
    {
      "type": "Feature",
      "properties": {
        "name": "OLD SEWARD & LINGON BERRY SSE",
        "stop_id": "52",
        "stop_code": "52"
      },
      "geometry": {
        "type": "Point",
        "coordinates": [
          -149.863786,
          61.127898
        ]
      }
    },
    {
      "type": "Feature",
      "properties": {
        "name": "OLD SEWARD & SUNDOWN SSE",
        "stop_id": "53",
        "stop_code": "53"
      },
      "geometry": {
        "type": "Point",
        "coordinates": [
          -149.863715,
          61.13285
        ]
      }
    },
    {
      "type": "Feature",
      "properties": {
        "name": "JAMESTOWN & RED CEDAR SSW",
        "stop_id": "54",
        "stop_code": "54"
      },
      "geometry": {
        "type": "Point",
        "coordinates": [
          -149.848133,
          61.126409
        ]
      }
    },
    {
      "type": "Feature",
      "properties": {
        "name": "OLD SEWARD & ABBOTT NNE",
        "stop_id": "55",
        "stop_code": "55"
      },
      "geometry": {
        "type": "Point",
        "coordinates": [
          -149.863757,
          61.1379
        ]
      }
    },
    {
      "type": "Feature",
      "properties": {
        "name": "DIMOND TRANSIT CENTER",
        "stop_id": "57",
        "stop_code": "57"
      },
      "geometry": {
        "type": "Point",
        "coordinates": [
          -149.871953,
          61.142764
        ]
      }
    },
    {
      "type": "Feature",
      "properties": {
        "name": "OLD SEWARD & SUNDOWN NNW",
        "stop_id": "60",
        "stop_code": "60"
      },
      "geometry": {
        "type": "Point",
        "coordinates": [
          -149.864123,
          61.133199
        ]
      }
    },
    {
      "type": "Feature",
      "properties": {
        "name": "OLD SEWARD & ABBOTT SSW",
        "stop_id": "61",
        "stop_code": "61"
      },
      "geometry": {
        "type": "Point",
        "coordinates": [
          -149.864037,
          61.136624
        ]
      }
    },
    {
      "type": "Feature",
      "properties": {
        "name": "OLD SEWARD & LAKEWOOD NNW",
        "stop_id": "62",
        "stop_code": "62"
      },
      "geometry": {
        "type": "Point",
        "coordinates": [
          -149.864039,
          61.134564
        ]
      }
    },
    {
      "type": "Feature",
      "properties": {
        "name": "OLD SEWARD & 100TH AV SSW",
        "stop_id": "63",
        "stop_code": "63"
      },
      "geometry": {
        "type": "Point",
        "coordinates": [
          -149.864178,
          61.129562
        ]
      }
    },
    {
      "type": "Feature",
      "properties": {
        "name": "OLD SEWARD & LINGON BERRY SSW",
        "stop_id": "64",
        "stop_code": "64"
      },
      "geometry": {
        "type": "Point",
        "coordinates": [
          -149.864139,
          61.127452
        ]
      }
    },
    {
      "type": "Feature",
      "properties": {
        "name": "O'MALLEY & O'MALLEY CTR WSW",
        "stop_id": "65",
        "stop_code": "65"
      },
      "geometry": {
        "type": "Point",
        "coordinates": [
          -149.860897,
          61.122972
        ]
      }
    },
    {
      "type": "Feature",
      "properties": {
        "name": "COMMODORE & ELCADORE NNE",
        "stop_id": "66",
        "stop_code": "66"
      },
      "geometry": {
        "type": "Point",
        "coordinates": [
          -149.850715,
          61.123772
        ]
      }
    },
    {
      "type": "Feature",
      "properties": {
        "name": "JAMESTOWN & COMMODORE NNE",
        "stop_id": "67",
        "stop_code": "67"
      },
      "geometry": {
        "type": "Point",
        "coordinates": [
          -149.847898,
          61.12629
        ]
      }
    },
    {
      "type": "Feature",
      "properties": {
        "name": "JAMESTOWN & MRTHAS VNYRD NNE",
        "stop_id": "68",
        "stop_code": "68"
      },
      "geometry": {
        "type": "Point",
        "coordinates": [
          -149.84676,
          61.127673
        ]
      }
    },
    {
      "type": "Feature",
      "properties": {
        "name": "INDEPENDENCE & JAMESTOWN WNW",
        "stop_id": "69",
        "stop_code": "69"
      },
      "geometry": {
        "type": "Point",
        "coordinates": [
          -149.845261,
          61.129296
        ]
      }
    },
    {
      "type": "Feature",
      "properties": {
        "name": "INDEPENDENCE & COLONY NNE",
        "stop_id": "70",
        "stop_code": "70"
      },
      "geometry": {
        "type": "Point",
        "coordinates": [
          -149.845695,
          61.131217
        ]
      }
    },
    {
      "type": "Feature",
      "properties": {
        "name": "INDEPENDENCE & VANGUARD NNE",
        "stop_id": "71",
        "stop_code": "71"
      },
      "geometry": {
        "type": "Point",
        "coordinates": [
          -149.844029,
          61.13268
        ]
      }
    },
    {
      "type": "Feature",
      "properties": {
        "name": "INDEPENDENCE & SENTRY SSE",
        "stop_id": "72",
        "stop_code": "72"
      },
      "geometry": {
        "type": "Point",
        "coordinates": [
          -149.841703,
          61.133822
        ]
      }
    },
    {
      "type": "Feature",
      "properties": {
        "name": "LAKE OTIS & ABBOTT NNE",
        "stop_id": "75",
        "stop_code": "75"
      },
      "geometry": {
        "type": "Point",
        "coordinates": [
          -149.833852,
          61.138063
        ]
      }
    },
    {
      "type": "Feature",
      "properties": {
        "name": "LAKE OTIS & 88TH AVENUE NNE",
        "stop_id": "76",
        "stop_code": "76"
      },
      "geometry": {
        "type": "Point",
        "coordinates": [
          -149.83388,
          61.141627
        ]
      }
    },
    {
      "type": "Feature",
      "properties": {
        "name": "LAKE OTIS & 84TH AVENUE SSE",
        "stop_id": "77",
        "stop_code": "77"
      },
      "geometry": {
        "type": "Point",
        "coordinates": [
          -149.833938,
          61.143467
        ]
      }
    },
    {
      "type": "Feature",
      "properties": {
        "name": "LAKE OTIS & 80TH AVENUE SSE",
        "stop_id": "78",
        "stop_code": "78"
      },
      "geometry": {
        "type": "Point",
        "coordinates": [
          -149.833924,
          61.14801
        ]
      }
    },
    {
      "type": "Feature",
      "properties": {
        "name": "LAKE OTIS & LORE NNE",
        "stop_id": "79",
        "stop_code": "79"
      },
      "geometry": {
        "type": "Point",
        "coordinates": [
          -149.833936,
          61.152491
        ]
      }
    },
    {
      "type": "Feature",
      "properties": {
        "name": "LAKE OTIS & 72ND AVENUE NNE",
        "stop_id": "80",
        "stop_code": "80"
      },
      "geometry": {
        "type": "Point",
        "coordinates": [
          -149.833987,
          61.156035
        ]
      }
    },
    {
      "type": "Feature",
      "properties": {
        "name": "LAKE OTIS & 68TH AVENUE NNE",
        "stop_id": "81",
        "stop_code": "81"
      },
      "geometry": {
        "type": "Point",
        "coordinates": [
          -149.833996,
          61.159673
        ]
      }
    },
    {
      "type": "Feature",
      "properties": {
        "name": "LAKE OTIS & 63RD AVENUE SSE",
        "stop_id": "82",
        "stop_code": "82"
      },
      "geometry": {
        "type": "Point",
        "coordinates": [
          -149.834732,
          61.163002
        ]
      }
    },
    {
      "type": "Feature",
      "properties": {
        "name": "LAKE OTIS & DOWLING NNE",
        "stop_id": "83",
        "stop_code": "83"
      },
      "geometry": {
        "type": "Point",
        "coordinates": [
          -149.837928,
          61.167108
        ]
      }
    },
    {
      "type": "Feature",
      "properties": {
        "name": "LAKE OTIS & PAGO PAGO NNE",
        "stop_id": "84",
        "stop_code": "84"
      },
      "geometry": {
        "type": "Point",
        "coordinates": [
          -149.837984,
          61.168973
        ]
      }
    },
    {
      "type": "Feature",
      "properties": {
        "name": "LAKE OTIS & YMCA E",
        "stop_id": "85",
        "stop_code": "85"
      },
      "geometry": {
        "type": "Point",
        "coordinates": [
          -149.837991,
          61.17212
        ]
      }
    },
    {
      "type": "Feature",
      "properties": {
        "name": "LAKE OTIS & WALDRON NNE",
        "stop_id": "86",
        "stop_code": "86"
      },
      "geometry": {
        "type": "Point",
        "coordinates": [
          -149.837927,
          61.175673
        ]
      }
    },
    {
      "type": "Feature",
      "properties": {
        "name": "LAKE OTIS & 48TH AVENUE NNE",
        "stop_id": "87",
        "stop_code": "87"
      },
      "geometry": {
        "type": "Point",
        "coordinates": [
          -149.837896,
          61.178336
        ]
      }
    },
    {
      "type": "Feature",
      "properties": {
        "name": "LAKE OTIS & TUDOR NNE",
        "stop_id": "88",
        "stop_code": "88"
      },
      "geometry": {
        "type": "Point",
        "coordinates": [
          -149.83782,
          61.181575
        ]
      }
    },
    {
      "type": "Feature",
      "properties": {
        "name": "LAKE OTIS & 42ND AVENUE NNE",
        "stop_id": "89",
        "stop_code": "89"
      },
      "geometry": {
        "type": "Point",
        "coordinates": [
          -149.838011,
          61.183027
        ]
      }
    },
    {
      "type": "Feature",
      "properties": {
        "name": "LAKE OTIS & 40TH AVENUE NNE",
        "stop_id": "90",
        "stop_code": "90"
      },
      "geometry": {
        "type": "Point",
        "coordinates": [
          -149.837934,
          61.18525
        ]
      }
    },
    {
      "type": "Feature",
      "properties": {
        "name": "36TH AVENUE & LAKE OTIS WNW",
        "stop_id": "91",
        "stop_code": "91"
      },
      "geometry": {
        "type": "Point",
        "coordinates": [
          -149.838994,
          61.188133
        ]
      }
    },
    {
      "type": "Feature",
      "properties": {
        "name": "36TH AVENUE & MACINNES WNW",
        "stop_id": "93",
        "stop_code": "93"
      },
      "geometry": {
        "type": "Point",
        "coordinates": [
          -149.85022,
          61.188129
        ]
      }
    },
    {
      "type": "Feature",
      "properties": {
        "name": "36TH AVENUE & LATOUCHE WNW",
        "stop_id": "95",
        "stop_code": "95"
      },
      "geometry": {
        "type": "Point",
        "coordinates": [
          -149.859612,
          61.188117
        ]
      }
    },
    {
      "type": "Feature",
      "properties": {
        "name": "36TH AVENUE & DENALI WNW",
        "stop_id": "98",
        "stop_code": "98"
      },
      "geometry": {
        "type": "Point",
        "coordinates": [
          -149.878195,
          61.188197
        ]
      }
    },
    {
      "type": "Feature",
      "properties": {
        "name": "A STREET & 36TH AVENUE NNE",
        "stop_id": "99",
        "stop_code": "99"
      },
      "geometry": {
        "type": "Point",
        "coordinates": [
          -149.88289,
          61.189005
        ]
      }
    },
    {
      "type": "Feature",
      "properties": {
        "name": "A STREET & 31ST AVENUE SSE",
        "stop_id": "100",
        "stop_code": "100"
      },
      "geometry": {
        "type": "Point",
        "coordinates": [
          -149.88293,
          61.192401
        ]
      }
    },
    {
      "type": "Feature",
      "properties": {
        "name": "A STREET & NORTHERN LIGHTS NNE",
        "stop_id": "101",
        "stop_code": "101"
      },
      "geometry": {
        "type": "Point",
        "coordinates": [
          -149.882935,
          61.195933
        ]
      }
    },
    {
      "type": "Feature",
      "properties": {
        "name": "A STREET & FIREWEED NNE",
        "stop_id": "102",
        "stop_code": "102"
      },
      "geometry": {
        "type": "Point",
        "coordinates": [
          -149.882807,
          61.19917
        ]
      }
    },
    {
      "type": "Feature",
      "properties": {
        "name": "A STREET & CHESTER CREEK TRAIL",
        "stop_id": "103",
        "stop_code": "103"
      },
      "geometry": {
        "type": "Point",
        "coordinates": [
          -149.883145,
          61.204353
        ]
      }
    },
    {
      "type": "Feature",
      "properties": {
        "name": "A STREET & 16TH AVENUE NNE",
        "stop_id": "104",
        "stop_code": "104"
      },
      "geometry": {
        "type": "Point",
        "coordinates": [
          -149.882898,
          61.20683
        ]
      }
    },
    {
      "type": "Feature",
      "properties": {
        "name": "A STREET & 13TH AVENUE NNE",
        "stop_id": "105",
        "stop_code": "105"
      },
      "geometry": {
        "type": "Point",
        "coordinates": [
          -149.883095,
          61.210195
        ]
      }
    },
    {
      "type": "Feature",
      "properties": {
        "name": "A STREET & 11TH AVENUE NNE",
        "stop_id": "106",
        "stop_code": "106"
      },
      "geometry": {
        "type": "Point",
        "coordinates": [
          -149.883277,
          61.212138
        ]
      }
    },
    {
      "type": "Feature",
      "properties": {
        "name": "SPENARD & 25TH AVENUE SSW",
        "stop_id": "127",
        "stop_code": "127"
      },
      "geometry": {
        "type": "Point",
        "coordinates": [
          -149.905568,
          61.197572
        ]
      }
    },
    {
      "type": "Feature",
      "properties": {
        "name": "SPENARD & 27TH AVENUE SSW",
        "stop_id": "128",
        "stop_code": "128"
      },
      "geometry": {
        "type": "Point",
        "coordinates": [
          -149.905579,
          61.196082
        ]
      }
    },
    {
      "type": "Feature",
      "properties": {
        "name": "SPENARD & BENSON NNW",
        "stop_id": "129",
        "stop_code": "129"
      },
      "geometry": {
        "type": "Point",
        "coordinates": [
          -149.905787,
          61.194405
        ]
      }
    },
    {
      "type": "Feature",
      "properties": {
        "name": "SPENARD & 30TH AVENUE NNW",
        "stop_id": "130",
        "stop_code": "130"
      },
      "geometry": {
        "type": "Point",
        "coordinates": [
          -149.905774,
          61.193006
        ]
      }
    },
    {
      "type": "Feature",
      "properties": {
        "name": "SPENARD & 33RD AVENUE NNW",
        "stop_id": "131",
        "stop_code": "131"
      },
      "geometry": {
        "type": "Point",
        "coordinates": [
          -149.907482,
          61.190675
        ]
      }
    },
    {
      "type": "Feature",
      "properties": {
        "name": "SPENARD & 34TH AVENUE SSW",
        "stop_id": "132",
        "stop_code": "132"
      },
      "geometry": {
        "type": "Point",
        "coordinates": [
          -149.908678,
          61.189042
        ]
      }
    },
    {
      "type": "Feature",
      "properties": {
        "name": "SPENARD & MINNESOTA ENE",
        "stop_id": "133",
        "stop_code": "133"
      },
      "geometry": {
        "type": "Point",
        "coordinates": [
          -149.912189,
          61.186984
        ]
      }
    },
    {
      "type": "Feature",
      "properties": {
        "name": "SPENARD & GREENLAND WNW",
        "stop_id": "134",
        "stop_code": "134"
      },
      "geometry": {
        "type": "Point",
        "coordinates": [
          -149.915199,
          61.186547
        ]
      }
    },
    {
      "type": "Feature",
      "properties": {
        "name": "SPENARD & OREGON WNW",
        "stop_id": "135",
        "stop_code": "135"
      },
      "geometry": {
        "type": "Point",
        "coordinates": [
          -149.918802,
          61.185987
        ]
      }
    },
    {
      "type": "Feature",
      "properties": {
        "name": "SPENARD & MCRAE WNW",
        "stop_id": "136",
        "stop_code": "136"
      },
      "geometry": {
        "type": "Point",
        "coordinates": [
          -149.924247,
          61.185177
        ]
      }
    },
    {
      "type": "Feature",
      "properties": {
        "name": "SPENARD & NORTHWOOD ENE",
        "stop_id": "137",
        "stop_code": "137"
      },
      "geometry": {
        "type": "Point",
        "coordinates": [
          -149.927104,
          61.183869
        ]
      }
    },
    {
      "type": "Feature",
      "properties": {
        "name": "SPENARD & WISCONSIN SSW",
        "stop_id": "141",
        "stop_code": "141"
      },
      "geometry": {
        "type": "Point",
        "coordinates": [
          -149.939618,
          61.178722
        ]
      }
    },
    {
      "type": "Feature",
      "properties": {
        "name": "SPENARD & BREEZEWOOD SSW",
        "stop_id": "142",
        "stop_code": "142"
      },
      "geometry": {
        "type": "Point",
        "coordinates": [
          -149.942146,
          61.17691
        ]
      }
    },
    {
      "type": "Feature",
      "properties": {
        "name": "SPENARD & INTL ARPT RD NNW",
        "stop_id": "143",
        "stop_code": "143"
      },
      "geometry": {
        "type": "Point",
        "coordinates": [
          -149.944283,
          61.175228
        ]
      }
    },
    {
      "type": "Feature",
      "properties": {
        "name": "JEWEL LAKE & INTL AIRPORT SSW",
        "stop_id": "144",
        "stop_code": "144"
      },
      "geometry": {
        "type": "Point",
        "coordinates": [
          -149.943333,
          61.173138
        ]
      }
    },
    {
      "type": "Feature",
      "properties": {
        "name": "COLLINS WAY & JEWEL LAKE SSW",
        "stop_id": "145",
        "stop_code": "145"
      },
      "geometry": {
        "type": "Point",
        "coordinates": [
          -149.942722,
          61.166328
        ]
      }
    },
    {
      "type": "Feature",
      "properties": {
        "name": "COLLINS WAY & 62ND AVENUE NNW",
        "stop_id": "146",
        "stop_code": "146"
      },
      "geometry": {
        "type": "Point",
        "coordinates": [
          -149.940289,
          61.164614
        ]
      }
    },
    {
      "type": "Feature",
      "properties": {
        "name": "64TH AVENUE & COLLINS WAY ESE",
        "stop_id": "147",
        "stop_code": "147"
      },
      "geometry": {
        "type": "Point",
        "coordinates": [
          -149.937998,
          61.162677
        ]
      }
    },
    {
      "type": "Feature",
      "properties": {
        "name": "CRANBERRY & HOLLY SSW",
        "stop_id": "148",
        "stop_code": "148"
      },
      "geometry": {
        "type": "Point",
        "coordinates": [
          -149.937045,
          61.160697
        ]
      }
    },
    {
      "type": "Feature",
      "properties": {
        "name": "RASPBERRY & CRANBERRY WNW",
        "stop_id": "149",
        "stop_code": "149"
      },
      "geometry": {
        "type": "Point",
        "coordinates": [
          -149.937771,
          61.159398
        ]
      }
    },
    {
      "type": "Feature",
      "properties": {
        "name": "RASPBERRY & BLACKBERRY WNW",
        "stop_id": "151",
        "stop_code": "151"
      },
      "geometry": {
        "type": "Point",
        "coordinates": [
          -149.945457,
          61.159343
        ]
      }
    },
    {
      "type": "Feature",
      "properties": {
        "name": "JEWEL LAKE & RASPBERRY SSW",
        "stop_id": "154",
        "stop_code": "154"
      },
      "geometry": {
        "type": "Point",
        "coordinates": [
          -149.95201,
          61.158085
        ]
      }
    },
    {
      "type": "Feature",
      "properties": {
        "name": "JEWEL LAKE & 74TH AVENUE NNW",
        "stop_id": "155",
        "stop_code": "155"
      },
      "geometry": {
        "type": "Point",
        "coordinates": [
          -149.952003,
          61.153807
        ]
      }
    },
    {
      "type": "Feature",
      "properties": {
        "name": "JEWEL LAKE & STRAWBERRY SSW",
        "stop_id": "156",
        "stop_code": "156"
      },
      "geometry": {
        "type": "Point",
        "coordinates": [
          -149.951862,
          61.151615
        ]
      }
    },
    {
      "type": "Feature",
      "properties": {
        "name": "JEWEL LAKE & 79TH COURT SSW",
        "stop_id": "157",
        "stop_code": "157"
      },
      "geometry": {
        "type": "Point",
        "coordinates": [
          -149.95194,
          61.149298
        ]
      }
    },
    {
      "type": "Feature",
      "properties": {
        "name": "JEWEL LAKE & 82ND AVENUE NNW",
        "stop_id": "158",
        "stop_code": "158"
      },
      "geometry": {
        "type": "Point",
        "coordinates": [
          -149.951867,
          61.146808
        ]
      }
    },
    {
      "type": "Feature",
      "properties": {
        "name": "JEWEL LAKE & 84TH AVENUE NNW",
        "stop_id": "159",
        "stop_code": "159"
      },
      "geometry": {
        "type": "Point",
        "coordinates": [
          -149.951947,
          61.144802
        ]
      }
    },
    {
      "type": "Feature",
      "properties": {
        "name": "88TH AVENUE & JEWEL LAKE ESE",
        "stop_id": "162",
        "stop_code": "162"
      },
      "geometry": {
        "type": "Point",
        "coordinates": [
          -149.94999,
          61.141015
        ]
      }
    },
    {
      "type": "Feature",
      "properties": {
        "name": "88TH AVENUE & ALAMOSA ESE",
        "stop_id": "163",
        "stop_code": "163"
      },
      "geometry": {
        "type": "Point",
        "coordinates": [
          -149.945602,
          61.141122
        ]
      }
    },
    {
      "type": "Feature",
      "properties": {
        "name": "88TH AVENUE & DEWBERRY ESE",
        "stop_id": "164",
        "stop_code": "164"
      },
      "geometry": {
        "type": "Point",
        "coordinates": [
          -149.939488,
          61.14106
        ]
      }
    },
    {
      "type": "Feature",
      "properties": {
        "name": "88TH AVENUE & CRANBERRY ESE",
        "stop_id": "165",
        "stop_code": "165"
      },
      "geometry": {
        "type": "Point",
        "coordinates": [
          -149.936203,
          61.1411
        ]
      }
    },
    {
      "type": "Feature",
      "properties": {
        "name": "88TH AVENUE & FOREST VILLAGE ESE",
        "stop_id": "166",
        "stop_code": "166"
      },
      "geometry": {
        "type": "Point",
        "coordinates": [
          -149.932982,
          61.141105
        ]
      }
    },
    {
      "type": "Feature",
      "properties": {
        "name": "ARLENE & DIMOND NNW",
        "stop_id": "167",
        "stop_code": "167"
      },
      "geometry": {
        "type": "Point",
        "coordinates": [
          -149.929531,
          61.138401
        ]
      }
    },
    {
      "type": "Feature",
      "properties": {
        "name": "DIMOND & VICTOR ESE",
        "stop_id": "177",
        "stop_code": "177"
      },
      "geometry": {
        "type": "Point",
        "coordinates": [
          -149.919242,
          61.137278
        ]
      }
    },
    {
      "type": "Feature",
      "properties": {
        "name": "DIMOND & MINNESOTA ESE",
        "stop_id": "179",
        "stop_code": "179"
      },
      "geometry": {
        "type": "Point",
        "coordinates": [
          -149.90525,
          61.140868
        ]
      }
    },
    {
      "type": "Feature",
      "properties": {
        "name": "DIMOND & ANGELA ESE",
        "stop_id": "180",
        "stop_code": "180"
      },
      "geometry": {
        "type": "Point",
        "coordinates": [
          -149.914885,
          61.13814
        ]
      }
    },
    {
      "type": "Feature",
      "properties": {
        "name": "DIMOND & DIMOND CTR DR WNW",
        "stop_id": "189",
        "stop_code": "189"
      },
      "geometry": {
        "type": "Point",
        "coordinates": [
          -149.87267,
          61.144917
        ]
      }
    },
    {
      "type": "Feature",
      "properties": {
        "name": "DIMOND & C STREET WNW",
        "stop_id": "191",
        "stop_code": "191"
      },
      "geometry": {
        "type": "Point",
        "coordinates": [
          -149.888768,
          61.144912
        ]
      }
    },
    {
      "type": "Feature",
      "properties": {
        "name": "DIMOND & MINNESOTA ENE",
        "stop_id": "193",
        "stop_code": "193"
      },
      "geometry": {
        "type": "Point",
        "coordinates": [
          -149.9054,
          61.141257
        ]
      }
    },
    {
      "type": "Feature",
      "properties": {
        "name": "DIMOND & ANGELA ENE",
        "stop_id": "194",
        "stop_code": "194"
      },
      "geometry": {
        "type": "Point",
        "coordinates": [
          -149.915182,
          61.138602
        ]
      }
    },
    {
      "type": "Feature",
      "properties": {
        "name": "DIMOND & VICTOR WNW",
        "stop_id": "195",
        "stop_code": "195"
      },
      "geometry": {
        "type": "Point",
        "coordinates": [
          -149.923468,
          61.137655
        ]
      }
    },
    {
      "type": "Feature",
      "properties": {
        "name": "88TH AVENUE & FOREST VILLAGE ENE",
        "stop_id": "198",
        "stop_code": "198"
      },
      "geometry": {
        "type": "Point",
        "coordinates": [
          -149.933542,
          61.14115
        ]
      }
    },
    {
      "type": "Feature",
      "properties": {
        "name": "88TH AVENUE & CRANBERRY WNW",
        "stop_id": "199",
        "stop_code": "199"
      },
      "geometry": {
        "type": "Point",
        "coordinates": [
          -149.937753,
          61.141153
        ]
      }
    },
    {
      "type": "Feature",
      "properties": {
        "name": "88TH AVENUE & DEWBERRY WNW",
        "stop_id": "200",
        "stop_code": "200"
      },
      "geometry": {
        "type": "Point",
        "coordinates": [
          -149.941505,
          61.141195
        ]
      }
    },
    {
      "type": "Feature",
      "properties": {
        "name": "88TH AVENUE & ALAMOSA WNW",
        "stop_id": "201",
        "stop_code": "201"
      },
      "geometry": {
        "type": "Point",
        "coordinates": [
          -149.94666,
          61.14118
        ]
      }
    },
    {
      "type": "Feature",
      "properties": {
        "name": "88TH AVENUE & MOLANARY WNW",
        "stop_id": "202",
        "stop_code": "202"
      },
      "geometry": {
        "type": "Point",
        "coordinates": [
          -149.949873,
          61.141198
        ]
      }
    },
    {
      "type": "Feature",
      "properties": {
        "name": "JEWEL LAKE & 88TH AVENUE NNE",
        "stop_id": "210",
        "stop_code": "210"
      },
      "geometry": {
        "type": "Point",
        "coordinates": [
          -149.951685,
          61.141705
        ]
      }
    },
    {
      "type": "Feature",
      "properties": {
        "name": "JEWEL LAKE & 84TH AVENUE SSE",
        "stop_id": "212",
        "stop_code": "212"
      },
      "geometry": {
        "type": "Point",
        "coordinates": [
          -149.951693,
          61.144537
        ]
      }
    },
    {
      "type": "Feature",
      "properties": {
        "name": "JEWEL LAKE & 82ND AVENUE NNE",
        "stop_id": "213",
        "stop_code": "213"
      },
      "geometry": {
        "type": "Point",
        "coordinates": [
          -149.951743,
          61.146968
        ]
      }
    },
    {
      "type": "Feature",
      "properties": {
        "name": "JEWEL LAKE & 79TH AVENUE SSE",
        "stop_id": "214",
        "stop_code": "214"
      },
      "geometry": {
        "type": "Point",
        "coordinates": [
          -149.951648,
          61.149122
        ]
      }
    },
    {
      "type": "Feature",
      "properties": {
        "name": "JEWEL LAKE & STRAWBERRY NNE",
        "stop_id": "215",
        "stop_code": "215"
      },
      "geometry": {
        "type": "Point",
        "coordinates": [
          -149.951774,
          61.152264
        ]
      }
    },
    {
      "type": "Feature",
      "properties": {
        "name": "JEWEL LAKE & 74TH AVENUE NNE",
        "stop_id": "216",
        "stop_code": "216"
      },
      "geometry": {
        "type": "Point",
        "coordinates": [
          -149.95197,
          61.153846
        ]
      }
    },
    {
      "type": "Feature",
      "properties": {
        "name": "JEWEL LAKE & WEIMER NNE",
        "stop_id": "217",
        "stop_code": "217"
      },
      "geometry": {
        "type": "Point",
        "coordinates": [
          -149.951649,
          61.156645
        ]
      }
    },
    {
      "type": "Feature",
      "properties": {
        "name": "RASPBERRY & JEWEL LAKE ESE",
        "stop_id": "218",
        "stop_code": "218"
      },
      "geometry": {
        "type": "Point",
        "coordinates": [
          -149.950402,
          61.159048
        ]
      }
    },
    {
      "type": "Feature",
      "properties": {
        "name": "RASPBERRY & CHEVIGNY ESE",
        "stop_id": "219",
        "stop_code": "219"
      },
      "geometry": {
        "type": "Point",
        "coordinates": [
          -149.945903,
          61.159134
        ]
      }
    },
    {
      "type": "Feature",
      "properties": {
        "name": "RASPBERRY & CRANBERRY WSW",
        "stop_id": "220",
        "stop_code": "220"
      },
      "geometry": {
        "type": "Point",
        "coordinates": [
          -149.940775,
          61.159168
        ]
      }
    },
    {
      "type": "Feature",
      "properties": {
        "name": "CRANBERRY & 65TH AVENUE SSE",
        "stop_id": "222",
        "stop_code": "222"
      },
      "geometry": {
        "type": "Point",
        "coordinates": [
          -149.936673,
          61.161629
        ]
      }
    },
    {
      "type": "Feature",
      "properties": {
        "name": "64TH AVENUE & COLLINS WAY ENE",
        "stop_id": "223",
        "stop_code": "223"
      },
      "geometry": {
        "type": "Point",
        "coordinates": [
          -149.938342,
          61.162802
        ]
      }
    },
    {
      "type": "Feature",
      "properties": {
        "name": "COLLINS WAY & 62ND AVENUE NNE",
        "stop_id": "224",
        "stop_code": "224"
      },
      "geometry": {
        "type": "Point",
        "coordinates": [
          -149.940332,
          61.164883
        ]
      }
    },
    {
      "type": "Feature",
      "properties": {
        "name": "COLLINS WAY & JEWEL LAKE SSE",
        "stop_id": "225",
        "stop_code": "225"
      },
      "geometry": {
        "type": "Point",
        "coordinates": [
          -149.942513,
          61.166285
        ]
      }
    },
    {
      "type": "Feature",
      "properties": {
        "name": "JEWEL LAKE & INTL AIRPORT SSE",
        "stop_id": "226",
        "stop_code": "226"
      },
      "geometry": {
        "type": "Point",
        "coordinates": [
          -149.942827,
          61.173339
        ]
      }
    },
    {
      "type": "Feature",
      "properties": {
        "name": "SPENARD & INTL ARPT RD NNE",
        "stop_id": "227",
        "stop_code": "227"
      },
      "geometry": {
        "type": "Point",
        "coordinates": [
          -149.943772,
          61.17512
        ]
      }
    },
    {
      "type": "Feature",
      "properties": {
        "name": "SPENARD & VALLEYWOOD NNE",
        "stop_id": "228",
        "stop_code": "228"
      },
      "geometry": {
        "type": "Point",
        "coordinates": [
          -149.940287,
          61.177763
        ]
      }
    },
    {
      "type": "Feature",
      "properties": {
        "name": "SPENARD & WISCONSIN NNE",
        "stop_id": "229",
        "stop_code": "229"
      },
      "geometry": {
        "type": "Point",
        "coordinates": [
          -149.938168,
          61.17964
        ]
      }
    },
    {
      "type": "Feature",
      "properties": {
        "name": "SPENARD & MCKINLEY SSE",
        "stop_id": "232",
        "stop_code": "232"
      },
      "geometry": {
        "type": "Point",
        "coordinates": [
          -149.926171,
          61.183984
        ]
      }
    },
    {
      "type": "Feature",
      "properties": {
        "name": "SPENARD & TAFT ESE",
        "stop_id": "233",
        "stop_code": "233"
      },
      "geometry": {
        "type": "Point",
        "coordinates": [
          -149.922427,
          61.185452
        ]
      }
    },
    {
      "type": "Feature",
      "properties": {
        "name": "SPENARD & WYOMING WSW",
        "stop_id": "234",
        "stop_code": "234"
      },
      "geometry": {
        "type": "Point",
        "coordinates": [
          -149.916088,
          61.186327
        ]
      }
    },
    {
      "type": "Feature",
      "properties": {
        "name": "SPENARD & MINNESOTA ESE",
        "stop_id": "235",
        "stop_code": "235"
      },
      "geometry": {
        "type": "Point",
        "coordinates": [
          -149.911642,
          61.186933
        ]
      }
    },
    {
      "type": "Feature",
      "properties": {
        "name": "SPENARD & 36TH AVENUE NNE",
        "stop_id": "236",
        "stop_code": "236"
      },
      "geometry": {
        "type": "Point",
        "coordinates": [
          -149.90845,
          61.18847
        ]
      }
    },
    {
      "type": "Feature",
      "properties": {
        "name": "SPENARD & 33RD AVENUE NNE",
        "stop_id": "237",
        "stop_code": "237"
      },
      "geometry": {
        "type": "Point",
        "coordinates": [
          -149.906626,
          61.191293
        ]
      }
    },
    {
      "type": "Feature",
      "properties": {
        "name": "SPENARD & 29TH PLACE SSE",
        "stop_id": "238",
        "stop_code": "238"
      },
      "geometry": {
        "type": "Point",
        "coordinates": [
          -149.905291,
          61.193564
        ]
      }
    },
    {
      "type": "Feature",
      "properties": {
        "name": "SPENARD & NORTHERN LIGHTS NNE",
        "stop_id": "239",
        "stop_code": "239"
      },
      "geometry": {
        "type": "Point",
        "coordinates": [
          -149.905288,
          61.195857
        ]
      }
    },
    {
      "type": "Feature",
      "properties": {
        "name": "SPENARD & 26TH AVE NNE",
        "stop_id": "240",
        "stop_code": "240"
      },
      "geometry": {
        "type": "Point",
        "coordinates": [
          -149.905387,
          61.197453
        ]
      }
    },
    {
      "type": "Feature",
      "properties": {
        "name": "17TH AVENUE & E STREET WSW",
        "stop_id": "245",
        "stop_code": "245"
      },
      "geometry": {
        "type": "Point",
        "coordinates": [
          -149.892528,
          61.205239
        ]
      }
    },
    {
      "type": "Feature",
      "properties": {
        "name": "A STREET & 8TH AVENUE NNE",
        "stop_id": "250",
        "stop_code": "250"
      },
      "geometry": {
        "type": "Point",
        "coordinates": [
          -149.883119,
          61.215023
        ]
      }
    },
    {
      "type": "Feature",
      "properties": {
        "name": "BENSON & SPENARD ESE",
        "stop_id": "275",
        "stop_code": "275"
      },
      "geometry": {
        "type": "Point",
        "coordinates": [
          -149.904488,
          61.193943
        ]
      }
    },
    {
      "type": "Feature",
      "properties": {
        "name": "BENSON & ARCTIC ESE",
        "stop_id": "276",
        "stop_code": "276"
      },
      "geometry": {
        "type": "Point",
        "coordinates": [
          -149.896939,
          61.194139
        ]
      }
    },
    {
      "type": "Feature",
      "properties": {
        "name": "BENSON & CHEECHAKO ESE",
        "stop_id": "277",
        "stop_code": "277"
      },
      "geometry": {
        "type": "Point",
        "coordinates": [
          -149.893564,
          61.194175
        ]
      }
    },
    {
      "type": "Feature",
      "properties": {
        "name": "BENSON & EUREKA ESE",
        "stop_id": "278",
        "stop_code": "278"
      },
      "geometry": {
        "type": "Point",
        "coordinates": [
          -149.88993,
          61.194168
        ]
      }
    },
    {
      "type": "Feature",
      "properties": {
        "name": "BENSON & C STREET ESE",
        "stop_id": "279",
        "stop_code": "279"
      },
      "geometry": {
        "type": "Point",
        "coordinates": [
          -149.885681,
          61.194147
        ]
      }
    },
    {
      "type": "Feature",
      "properties": {
        "name": "BENSON & A STREET ESE",
        "stop_id": "280",
        "stop_code": "280"
      },
      "geometry": {
        "type": "Point",
        "coordinates": [
          -149.879827,
          61.193691
        ]
      }
    },
    {
      "type": "Feature",
      "properties": {
        "name": "BENSON & DENALI ESE",
        "stop_id": "281",
        "stop_code": "281"
      },
      "geometry": {
        "type": "Point",
        "coordinates": [
          -149.87513,
          61.193382
        ]
      }
    },
    {
      "type": "Feature",
      "properties": {
        "name": "BENSON & NEW SEWARD ESE",
        "stop_id": "282",
        "stop_code": "282"
      },
      "geometry": {
        "type": "Point",
        "coordinates": [
          -149.866475,
          61.193323
        ]
      }
    },
    {
      "type": "Feature",
      "properties": {
        "name": "BENSON & LATOUCHE ESE",
        "stop_id": "283",
        "stop_code": "283"
      },
      "geometry": {
        "type": "Point",
        "coordinates": [
          -149.85976,
          61.194517
        ]
      }
    },
    {
      "type": "Feature",
      "properties": {
        "name": "NORTHERN LIGHTS & REDWOOD ESE",
        "stop_id": "284",
        "stop_code": "284"
      },
      "geometry": {
        "type": "Point",
        "coordinates": [
          -149.855217,
          61.195305
        ]
      }
    },
    {
      "type": "Feature",
      "properties": {
        "name": "NORTHERN LIGHTS & DRAKE WSW",
        "stop_id": "285",
        "stop_code": "285"
      },
      "geometry": {
        "type": "Point",
        "coordinates": [
          -149.846589,
          61.195224
        ]
      }
    },
    {
      "type": "Feature",
      "properties": {
        "name": "NORTHERN LIGHTS & LAKE OTIS WSW",
        "stop_id": "286",
        "stop_code": "286"
      },
      "geometry": {
        "type": "Point",
        "coordinates": [
          -149.842519,
          61.19522
        ]
      }
    },
    {
      "type": "Feature",
      "properties": {
        "name": "PROVIDENCE & PIPER ESE",
        "stop_id": "291",
        "stop_code": "291"
      },
      "geometry": {
        "type": "Point",
        "coordinates": [
          -149.828212,
          61.187901
        ]
      }
    },
    {
      "type": "Feature",
      "properties": {
        "name": "UAA DRIVE & PROVIDENCE NNE",
        "stop_id": "293",
        "stop_code": "293"
      },
      "geometry": {
        "type": "Point",
        "coordinates": [
          -149.822565,
          61.190273
        ]
      }
    },
    {
      "type": "Feature",
      "properties": {
        "name": "BONIFACE & NORTHERN LIGHTS NNE",
        "stop_id": "302",
        "stop_code": "302"
      },
      "geometry": {
        "type": "Point",
        "coordinates": [
          -149.778173,
          61.195917
        ]
      }
    },
    {
      "type": "Feature",
      "properties": {
        "name": "BONIFACE & 24TH AVENUE SSE",
        "stop_id": "303",
        "stop_code": "303"
      },
      "geometry": {
        "type": "Point",
        "coordinates": [
          -149.778171,
          61.198303
        ]
      }
    },
    {
      "type": "Feature",
      "properties": {
        "name": "PEMBROKE & COLLEGE SSE",
        "stop_id": "304",
        "stop_code": "304"
      },
      "geometry": {
        "type": "Point",
        "coordinates": [
          -149.777904,
          61.200348
        ]
      }
    },
    {
      "type": "Feature",
      "properties": {
        "name": "PENN & RADCLIFFE SSE",
        "stop_id": "305",
        "stop_code": "305"
      },
      "geometry": {
        "type": "Point",
        "coordinates": [
          -149.776303,
          61.201938
        ]
      }
    },
    {
      "type": "Feature",
      "properties": {
        "name": "STERLING & RICHARDSON ESE",
        "stop_id": "306",
        "stop_code": "306"
      },
      "geometry": {
        "type": "Point",
        "coordinates": [
          -149.774566,
          61.204205
        ]
      }
    },
    {
      "type": "Feature",
      "properties": {
        "name": "NUNAKA & FULTON NNE",
        "stop_id": "307",
        "stop_code": "307"
      },
      "geometry": {
        "type": "Point",
        "coordinates": [
          -149.772307,
          61.20459
        ]
      }
    },
    {
      "type": "Feature",
      "properties": {
        "name": "NUNAKA & MILEY NNE",
        "stop_id": "308",
        "stop_code": "308"
      },
      "geometry": {
        "type": "Point",
        "coordinates": [
          -149.769914,
          61.207598
        ]
      }
    },
    {
      "type": "Feature",
      "properties": {
        "name": "NUNAKA & DEBARR SSE",
        "stop_id": "309",
        "stop_code": "309"
      },
      "geometry": {
        "type": "Point",
        "coordinates": [
          -149.769919,
          61.209235
        ]
      }
    },
    {
      "type": "Feature",
      "properties": {
        "name": "DEBARR & BEAVER ESE",
        "stop_id": "311",
        "stop_code": "311"
      },
      "geometry": {
        "type": "Point",
        "coordinates": [
          -149.761838,
          61.209644
        ]
      }
    },
    {
      "type": "Feature",
      "properties": {
        "name": "DEBARR & TURPIN ESE",
        "stop_id": "312",
        "stop_code": "312"
      },
      "geometry": {
        "type": "Point",
        "coordinates": [
          -149.754945,
          61.209625
        ]
      }
    },
    {
      "type": "Feature",
      "properties": {
        "name": "CHANDALAR & 2441 EAST",
        "stop_id": "321",
        "stop_code": "321"
      },
      "geometry": {
        "type": "Point",
        "coordinates": [
          -149.74496,
          61.198167
        ]
      }
    },
    {
      "type": "Feature",
      "properties": {
        "name": "CHANDALAR & 2251 EAST",
        "stop_id": "322",
        "stop_code": "322"
      },
      "geometry": {
        "type": "Point",
        "coordinates": [
          -149.7445,
          61.1998
        ]
      }
    },
    {
      "type": "Feature",
      "properties": {
        "name": "CHANDALAR & 20TH AVENUE SSE",
        "stop_id": "323",
        "stop_code": "323"
      },
      "geometry": {
        "type": "Point",
        "coordinates": [
          -149.741649,
          61.202818
        ]
      }
    },
    {
      "type": "Feature",
      "properties": {
        "name": "20TH AVENUE & DIOMEDE WNW",
        "stop_id": "324",
        "stop_code": "324"
      },
      "geometry": {
        "type": "Point",
        "coordinates": [
          -149.744487,
          61.203331
        ]
      }
    },
    {
      "type": "Feature",
      "properties": {
        "name": "PATTERSON & 20TH AVENUE NNE",
        "stop_id": "325",
        "stop_code": "325"
      },
      "geometry": {
        "type": "Point",
        "coordinates": [
          -149.748303,
          61.203858
        ]
      }
    },
    {
      "type": "Feature",
      "properties": {
        "name": "PATTERSON & 17TH AVENUE NNE",
        "stop_id": "326",
        "stop_code": "326"
      },
      "geometry": {
        "type": "Point",
        "coordinates": [
          -149.748294,
          61.206028
        ]
      }
    },
    {
      "type": "Feature",
      "properties": {
        "name": "PATTERSON & MINK NNE",
        "stop_id": "327",
        "stop_code": "327"
      },
      "geometry": {
        "type": "Point",
        "coordinates": [
          -149.748303,
          61.209246
        ]
      }
    },
    {
      "type": "Feature",
      "properties": {
        "name": "DEBARR & PATTERSON ESE",
        "stop_id": "330",
        "stop_code": "330"
      },
      "geometry": {
        "type": "Point",
        "coordinates": [
          -149.747608,
          61.209649
        ]
      }
    },
    {
      "type": "Feature",
      "properties": {
        "name": "DEBARR & CREEKSIDE CTR WSW",
        "stop_id": "331",
        "stop_code": "331"
      },
      "geometry": {
        "type": "Point",
        "coordinates": [
          -149.741853,
          61.20966
        ]
      }
    },
    {
      "type": "Feature",
      "properties": {
        "name": "DEBARR & GRASS CREEK ESE",
        "stop_id": "332",
        "stop_code": "332"
      },
      "geometry": {
        "type": "Point",
        "coordinates": [
          -149.73645,
          61.20967
        ]
      }
    },
    {
      "type": "Feature",
      "properties": {
        "name": "DEBARR & MULDOON WNW",
        "stop_id": "355",
        "stop_code": "355"
      },
      "geometry": {
        "type": "Point",
        "coordinates": [
          -149.73524,
          61.209843
        ]
      }
    },
    {
      "type": "Feature",
      "properties": {
        "name": "DEBARR & CREEKSIDE CTR ENE",
        "stop_id": "356",
        "stop_code": "356"
      },
      "geometry": {
        "type": "Point",
        "coordinates": [
          -149.740572,
          61.209853
        ]
      }
    },
    {
      "type": "Feature",
      "properties": {
        "name": "PATTERSON & MINK SSW",
        "stop_id": "358",
        "stop_code": "358"
      },
      "geometry": {
        "type": "Point",
        "coordinates": [
          -149.748511,
          61.208911
        ]
      }
    },
    {
      "type": "Feature",
      "properties": {
        "name": "PATTERSON & 16TH AVENUE SSW",
        "stop_id": "359",
        "stop_code": "359"
      },
      "geometry": {
        "type": "Point",
        "coordinates": [
          -149.748513,
          61.205968
        ]
      }
    },
    {
      "type": "Feature",
      "properties": {
        "name": "20TH AVENUE & BARBOA WSW",
        "stop_id": "360",
        "stop_code": "360"
      },
      "geometry": {
        "type": "Point",
        "coordinates": [
          -149.745098,
          61.203389
        ]
      }
    },
    {
      "type": "Feature",
      "properties": {
        "name": "CHANDALAR & 21ST AVENUE SSW",
        "stop_id": "361",
        "stop_code": "361"
      },
      "geometry": {
        "type": "Point",
        "coordinates": [
          -149.742006,
          61.201805
        ]
      }
    },
    {
      "type": "Feature",
      "properties": {
        "name": "CHANDALAR & 2300 WEST",
        "stop_id": "362",
        "stop_code": "362"
      },
      "geometry": {
        "type": "Point",
        "coordinates": [
          -149.744775,
          61.199678
        ]
      }
    },
    {
      "type": "Feature",
      "properties": {
        "name": "CHANDALAR & 2450 WEST",
        "stop_id": "363",
        "stop_code": "363"
      },
      "geometry": {
        "type": "Point",
        "coordinates": [
          -149.7452,
          61.197753
        ]
      }
    },
    {
      "type": "Feature",
      "properties": {
        "name": "NORTHERN LIGHTS & AUGUSTINE WNW",
        "stop_id": "364",
        "stop_code": "364"
      },
      "geometry": {
        "type": "Point",
        "coordinates": [
          -149.744502,
          61.19545
        ]
      }
    },
    {
      "type": "Feature",
      "properties": {
        "name": "NORTHERN LIGHTS & PATTERSON WNW",
        "stop_id": "365",
        "stop_code": "365"
      },
      "geometry": {
        "type": "Point",
        "coordinates": [
          -149.749775,
          61.195522
        ]
      }
    },
    {
      "type": "Feature",
      "properties": {
        "name": "NORTHERN LIGHTS & BRITTANY WNW",
        "stop_id": "366",
        "stop_code": "366"
      },
      "geometry": {
        "type": "Point",
        "coordinates": [
          -149.755352,
          61.195497
        ]
      }
    },
    {
      "type": "Feature",
      "properties": {
        "name": "NORTHERN LIGHTS & CIMMARON WNW",
        "stop_id": "367",
        "stop_code": "367"
      },
      "geometry": {
        "type": "Point",
        "coordinates": [
          -149.759163,
          61.195452
        ]
      }
    },
    {
      "type": "Feature",
      "properties": {
        "name": "NORTHERN LIGHTS & BAXTER WNW",
        "stop_id": "368",
        "stop_code": "368"
      },
      "geometry": {
        "type": "Point",
        "coordinates": [
          -149.764613,
          61.195355
        ]
      }
    },
    {
      "type": "Feature",
      "properties": {
        "name": "NORTHERN LIGHTS & DERBY WNW",
        "stop_id": "369",
        "stop_code": "369"
      },
      "geometry": {
        "type": "Point",
        "coordinates": [
          -149.769305,
          61.195348
        ]
      }
    },
    {
      "type": "Feature",
      "properties": {
        "name": "DEBARR & PATTERSON WNW",
        "stop_id": "372",
        "stop_code": "372"
      },
      "geometry": {
        "type": "Point",
        "coordinates": [
          -149.749293,
          61.20982
        ]
      }
    },
    {
      "type": "Feature",
      "properties": {
        "name": "DEBARR & TURPIN WNW",
        "stop_id": "373",
        "stop_code": "373"
      },
      "geometry": {
        "type": "Point",
        "coordinates": [
          -149.7573,
          61.209842
        ]
      }
    },
    {
      "type": "Feature",
      "properties": {
        "name": "DEBARR & EDWARD ENE",
        "stop_id": "374",
        "stop_code": "374"
      },
      "geometry": {
        "type": "Point",
        "coordinates": [
          -149.763379,
          61.209834
        ]
      }
    },
    {
      "type": "Feature",
      "properties": {
        "name": "NUNAKA & DEBARR SSW",
        "stop_id": "375",
        "stop_code": "375"
      },
      "geometry": {
        "type": "Point",
        "coordinates": [
          -149.770232,
          61.209018
        ]
      }
    },
    {
      "type": "Feature",
      "properties": {
        "name": "NUNAKA & MILEY SSW",
        "stop_id": "376",
        "stop_code": "376"
      },
      "geometry": {
        "type": "Point",
        "coordinates": [
          -149.770055,
          61.207238
        ]
      }
    },
    {
      "type": "Feature",
      "properties": {
        "name": "NUNAKA & PERRY SSW",
        "stop_id": "377",
        "stop_code": "377"
      },
      "geometry": {
        "type": "Point",
        "coordinates": [
          -149.771177,
          61.205565
        ]
      }
    },
    {
      "type": "Feature",
      "properties": {
        "name": "NUNAKA & STERLING NNW",
        "stop_id": "378",
        "stop_code": "378"
      },
      "geometry": {
        "type": "Point",
        "coordinates": [
          -149.773292,
          61.203952
        ]
      }
    },
    {
      "type": "Feature",
      "properties": {
        "name": "STERLING & TWINING ENE",
        "stop_id": "379",
        "stop_code": "379"
      },
      "geometry": {
        "type": "Point",
        "coordinates": [
          -149.776289,
          61.204593
        ]
      }
    },
    {
      "type": "Feature",
      "properties": {
        "name": "PENN & RADCLIFFE NNW",
        "stop_id": "380",
        "stop_code": "380"
      },
      "geometry": {
        "type": "Point",
        "coordinates": [
          -149.776262,
          61.202182
        ]
      }
    },
    {
      "type": "Feature",
      "properties": {
        "name": "PEMBROKE & COLLEGE SSW",
        "stop_id": "381",
        "stop_code": "381"
      },
      "geometry": {
        "type": "Point",
        "coordinates": [
          -149.778045,
          61.2
        ]
      }
    },
    {
      "type": "Feature",
      "properties": {
        "name": "BONIFACE & 24TH AVENUE SSW",
        "stop_id": "382",
        "stop_code": "382"
      },
      "geometry": {
        "type": "Point",
        "coordinates": [
          -149.77865,
          61.198325
        ]
      }
    },
    {
      "type": "Feature",
      "properties": {
        "name": "NORTHERN LIGHTS & BONIFACE WNW",
        "stop_id": "385",
        "stop_code": "385"
      },
      "geometry": {
        "type": "Point",
        "coordinates": [
          -149.780128,
          61.195302
        ]
      }
    },
    {
      "type": "Feature",
      "properties": {
        "name": "NORTHERN LIGHTS & WESLEYAN WNW",
        "stop_id": "386",
        "stop_code": "386"
      },
      "geometry": {
        "type": "Point",
        "coordinates": [
          -149.79,
          61.195305
        ]
      }
    },
    {
      "type": "Feature",
      "properties": {
        "name": "NORTHERN LIGHTS & EAST HS ENE",
        "stop_id": "387",
        "stop_code": "387"
      },
      "geometry": {
        "type": "Point",
        "coordinates": [
          -149.8014,
          61.199067
        ]
      }
    },
    {
      "type": "Feature",
      "properties": {
        "name": "NORTHERN LIGHTS & BRAGAW WNW",
        "stop_id": "388",
        "stop_code": "388"
      },
      "geometry": {
        "type": "Point",
        "coordinates": [
          -149.809865,
          61.198948
        ]
      }
    },
    {
      "type": "Feature",
      "properties": {
        "name": "UAA DRIVE & NORTHERN LIGHTS SSW",
        "stop_id": "391",
        "stop_code": "391"
      },
      "geometry": {
        "type": "Point",
        "coordinates": [
          -149.82687,
          61.195353
        ]
      }
    },
    {
      "type": "Feature",
      "properties": {
        "name": "UAA DRIVE & PROVIDENCE NNW",
        "stop_id": "392",
        "stop_code": "392"
      },
      "geometry": {
        "type": "Point",
        "coordinates": [
          -149.82331,
          61.19092
        ]
      }
    },
    {
      "type": "Feature",
      "properties": {
        "name": "LAKE OTIS & PROVIDENCE NNE",
        "stop_id": "396",
        "stop_code": "396"
      },
      "geometry": {
        "type": "Point",
        "coordinates": [
          -149.83798,
          61.188701
        ]
      }
    },
    {
      "type": "Feature",
      "properties": {
        "name": "LAKE OTIS & CORNELL SSE",
        "stop_id": "397",
        "stop_code": "397"
      },
      "geometry": {
        "type": "Point",
        "coordinates": [
          -149.83806,
          61.191391
        ]
      }
    },
    {
      "type": "Feature",
      "properties": {
        "name": "NORTHERN LIGHTS & LAKE OTIS WNW",
        "stop_id": "398",
        "stop_code": "398"
      },
      "geometry": {
        "type": "Point",
        "coordinates": [
          -149.839335,
          61.19553
        ]
      }
    },
    {
      "type": "Feature",
      "properties": {
        "name": "NORTHERN LIGHTS & MAPLEWOOD WNW",
        "stop_id": "399",
        "stop_code": "399"
      },
      "geometry": {
        "type": "Point",
        "coordinates": [
          -149.846752,
          61.195528
        ]
      }
    },
    {
      "type": "Feature",
      "properties": {
        "name": "NORTHERN LIGHTS & GLENWOOD WNW",
        "stop_id": "400",
        "stop_code": "400"
      },
      "geometry": {
        "type": "Point",
        "coordinates": [
          -149.853672,
          61.195574
        ]
      }
    },
    {
      "type": "Feature",
      "properties": {
        "name": "NORTHERN LIGHTS & LATOUCHE WNW",
        "stop_id": "401",
        "stop_code": "401"
      },
      "geometry": {
        "type": "Point",
        "coordinates": [
          -149.861679,
          61.19531
        ]
      }
    },
    {
      "type": "Feature",
      "properties": {
        "name": "NORTHERN LIGHTS & GAMBELL ENE",
        "stop_id": "402",
        "stop_code": "402"
      },
      "geometry": {
        "type": "Point",
        "coordinates": [
          -149.869879,
          61.195373
        ]
      }
    },
    {
      "type": "Feature",
      "properties": {
        "name": "NORTHERN LIGHTS & DENALI ENE",
        "stop_id": "403",
        "stop_code": "403"
      },
      "geometry": {
        "type": "Point",
        "coordinates": [
          -149.875965,
          61.19537
        ]
      }
    },
    {
      "type": "Feature",
      "properties": {
        "name": "NORTHERN LIGHTS & CORDOVA WNW",
        "stop_id": "404",
        "stop_code": "404"
      },
      "geometry": {
        "type": "Point",
        "coordinates": [
          -149.87924,
          61.195355
        ]
      }
    },
    {
      "type": "Feature",
      "properties": {
        "name": "NORTHERN LIGHTS & A STREET WNW",
        "stop_id": "405",
        "stop_code": "405"
      },
      "geometry": {
        "type": "Point",
        "coordinates": [
          -149.883969,
          61.195353
        ]
      }
    },
    {
      "type": "Feature",
      "properties": {
        "name": "NORTHERN LIGHTS & C STREET WNW",
        "stop_id": "406",
        "stop_code": "406"
      },
      "geometry": {
        "type": "Point",
        "coordinates": [
          -149.8875,
          61.195404
        ]
      }
    },
    {
      "type": "Feature",
      "properties": {
        "name": "NORTHERN LIGHTS & BERING ENE",
        "stop_id": "407",
        "stop_code": "407"
      },
      "geometry": {
        "type": "Point",
        "coordinates": [
          -149.89513,
          61.195371
        ]
      }
    },
    {
      "type": "Feature",
      "properties": {
        "name": "NORTHERN LIGHTS & ARCTIC WNW",
        "stop_id": "408",
        "stop_code": "408"
      },
      "geometry": {
        "type": "Point",
        "coordinates": [
          -149.898737,
          61.195351
        ]
      }
    },
    {
      "type": "Feature",
      "properties": {
        "name": "NORTHERN LIGHTS & SPENARD WNW",
        "stop_id": "409",
        "stop_code": "409"
      },
      "geometry": {
        "type": "Point",
        "coordinates": [
          -149.906828,
          61.195379
        ]
      }
    },
    {
      "type": "Feature",
      "properties": {
        "name": "NORTHERN LIGHTS & MINNESOTA ENE",
        "stop_id": "410",
        "stop_code": "410"
      },
      "geometry": {
        "type": "Point",
        "coordinates": [
          -149.9106,
          61.195367
        ]
      }
    },
    {
      "type": "Feature",
      "properties": {
        "name": "MINNESOTA & 26TH AVENUE NNE",
        "stop_id": "411",
        "stop_code": "411"
      },
      "geometry": {
        "type": "Point",
        "coordinates": [
          -149.912798,
          61.197666
        ]
      }
    },
    {
      "type": "Feature",
      "properties": {
        "name": "9TH AVENUE & INGRA ESE",
        "stop_id": "423",
        "stop_code": "423"
      },
      "geometry": {
        "type": "Point",
        "coordinates": [
          -149.865558,
          61.213602
        ]
      }
    },
    {
      "type": "Feature",
      "properties": {
        "name": "9TH AVENUE & KARLUK ESE",
        "stop_id": "424",
        "stop_code": "424"
      },
      "geometry": {
        "type": "Point",
        "coordinates": [
          -149.861597,
          61.213578
        ]
      }
    },
    {
      "type": "Feature",
      "properties": {
        "name": "LATOUCHE & 10TH AVENUE SSW",
        "stop_id": "425",
        "stop_code": "425"
      },
      "geometry": {
        "type": "Point",
        "coordinates": [
          -149.860863,
          61.212437
        ]
      }
    },
    {
      "type": "Feature",
      "properties": {
        "name": "MEDFRA & 12TH AVENUE SSW",
        "stop_id": "426",
        "stop_code": "426"
      },
      "geometry": {
        "type": "Point",
        "coordinates": [
          -149.858863,
          61.210393
        ]
      }
    },
    {
      "type": "Feature",
      "properties": {
        "name": "MEDFRA & 14TH AVENUE NNW",
        "stop_id": "427",
        "stop_code": "427"
      },
      "geometry": {
        "type": "Point",
        "coordinates": [
          -149.858835,
          61.208753
        ]
      }
    },
    {
      "type": "Feature",
      "properties": {
        "name": "CHUGACH VIEW",
        "stop_id": "429",
        "stop_code": "429"
      },
      "geometry": {
        "type": "Point",
        "coordinates": [
          -149.857968,
          61.204812
        ]
      }
    },
    {
      "type": "Feature",
      "properties": {
        "name": "15TH AVENUE & MEDFRA ESE",
        "stop_id": "434",
        "stop_code": "434"
      },
      "geometry": {
        "type": "Point",
        "coordinates": [
          -149.85801,
          61.207625
        ]
      }
    },
    {
      "type": "Feature",
      "properties": {
        "name": "DEBARR & CHARTER CIR WSW",
        "stop_id": "437",
        "stop_code": "437"
      },
      "geometry": {
        "type": "Point",
        "coordinates": [
          -149.835445,
          61.207752
        ]
      }
    },
    {
      "type": "Feature",
      "properties": {
        "name": "ALASKA REGIONAL HOSPITAL S",
        "stop_id": "438",
        "stop_code": "438"
      },
      "geometry": {
        "type": "Point",
        "coordinates": [
          -149.826404,
          61.210158
        ]
      }
    },
    {
      "type": "Feature",
      "properties": {
        "name": "PENLAND PKWY & PAUL LALONE ESE",
        "stop_id": "441",
        "stop_code": "441"
      },
      "geometry": {
        "type": "Point",
        "coordinates": [
          -149.820792,
          61.215448
        ]
      }
    },
    {
      "type": "Feature",
      "properties": {
        "name": "PENLAND PKWY & KIDS CT ESE",
        "stop_id": "442",
        "stop_code": "442"
      },
      "geometry": {
        "type": "Point",
        "coordinates": [
          -149.816905,
          61.215553
        ]
      }
    },
    {
      "type": "Feature",
      "properties": {
        "name": "PENLAND PKWY & NORTHWAY ESE",
        "stop_id": "443",
        "stop_code": "443"
      },
      "geometry": {
        "type": "Point",
        "coordinates": [
          -149.812121,
          61.215806
        ]
      }
    },
    {
      "type": "Feature",
      "properties": {
        "name": "BRAGAW & 9TH AVENUE SSW",
        "stop_id": "445",
        "stop_code": "445"
      },
      "geometry": {
        "type": "Point",
        "coordinates": [
          -149.80846,
          61.213638
        ]
      }
    },
    {
      "type": "Feature",
      "properties": {
        "name": "BRAGAW & SAN JEROMINO NNW",
        "stop_id": "446",
        "stop_code": "446"
      },
      "geometry": {
        "type": "Point",
        "coordinates": [
          -149.808464,
          61.211849
        ]
      }
    },
    {
      "type": "Feature",
      "properties": {
        "name": "DEBARR & BRAGAW ESE",
        "stop_id": "447",
        "stop_code": "447"
      },
      "geometry": {
        "type": "Point",
        "coordinates": [
          -149.80723,
          61.209575
        ]
      }
    },
    {
      "type": "Feature",
      "properties": {
        "name": "DEBARR & HOYT ESE",
        "stop_id": "448",
        "stop_code": "448"
      },
      "geometry": {
        "type": "Point",
        "coordinates": [
          -149.799343,
          61.209652
        ]
      }
    },
    {
      "type": "Feature",
      "properties": {
        "name": "DEBARR & PINE WSW",
        "stop_id": "449",
        "stop_code": "449"
      },
      "geometry": {
        "type": "Point",
        "coordinates": [
          -149.793818,
          61.209647
        ]
      }
    },
    {
      "type": "Feature",
      "properties": {
        "name": "DEBARR & L SELKREGG WSW",
        "stop_id": "450",
        "stop_code": "450"
      },
      "geometry": {
        "type": "Point",
        "coordinates": [
          -149.786386,
          61.209638
        ]
      }
    },
    {
      "type": "Feature",
      "properties": {
        "name": "DEBARR & BONIFACE WSW",
        "stop_id": "451",
        "stop_code": "451"
      },
      "geometry": {
        "type": "Point",
        "coordinates": [
          -149.779258,
          61.209649
        ]
      }
    },
    {
      "type": "Feature",
      "properties": {
        "name": "DEBARR & BONIFACE ESE",
        "stop_id": "452",
        "stop_code": "452"
      },
      "geometry": {
        "type": "Point",
        "coordinates": [
          -149.775917,
          61.209635
        ]
      }
    },
    {
      "type": "Feature",
      "properties": {
        "name": "DEBARR & BUCKNER ESE",
        "stop_id": "453",
        "stop_code": "453"
      },
      "geometry": {
        "type": "Point",
        "coordinates": [
          -149.770823,
          61.20965
        ]
      }
    },
    {
      "type": "Feature",
      "properties": {
        "name": "DEBARR & ATKINSON ESE",
        "stop_id": "454",
        "stop_code": "454"
      },
      "geometry": {
        "type": "Point",
        "coordinates": [
          -149.766195,
          61.209648
        ]
      }
    },
    {
      "type": "Feature",
      "properties": {
        "name": "BEAVER & DEBARR SSW",
        "stop_id": "455",
        "stop_code": "455"
      },
      "geometry": {
        "type": "Point",
        "coordinates": [
          -149.762602,
          61.208797
        ]
      }
    },
    {
      "type": "Feature",
      "properties": {
        "name": "BEAVER & 16TH AVENUE SSW",
        "stop_id": "456",
        "stop_code": "456"
      },
      "geometry": {
        "type": "Point",
        "coordinates": [
          -149.762543,
          61.205682
        ]
      }
    },
    {
      "type": "Feature",
      "properties": {
        "name": "BEAVER & CHENEY LAKE W",
        "stop_id": "457",
        "stop_code": "457"
      },
      "geometry": {
        "type": "Point",
        "coordinates": [
          -149.762553,
          61.202157
        ]
      }
    },
    {
      "type": "Feature",
      "properties": {
        "name": "BAXTER & COLGATE SSW",
        "stop_id": "458",
        "stop_code": "458"
      },
      "geometry": {
        "type": "Point",
        "coordinates": [
          -149.763508,
          61.198892
        ]
      }
    },
    {
      "type": "Feature",
      "properties": {
        "name": "BAXTER & CAMROSE SSW",
        "stop_id": "459",
        "stop_code": "459"
      },
      "geometry": {
        "type": "Point",
        "coordinates": [
          -149.763478,
          61.196242
        ]
      }
    },
    {
      "type": "Feature",
      "properties": {
        "name": "BAXTER & NORTHERN LIGHTS SSW",
        "stop_id": "460",
        "stop_code": "460"
      },
      "geometry": {
        "type": "Point",
        "coordinates": [
          -149.763505,
          61.194653
        ]
      }
    },
    {
      "type": "Feature",
      "properties": {
        "name": "BAXTER & BAXTER ELEM WEST",
        "stop_id": "461",
        "stop_code": "461"
      },
      "geometry": {
        "type": "Point",
        "coordinates": [
          -149.763489,
          61.193201
        ]
      }
    },
    {
      "type": "Feature",
      "properties": {
        "name": "BAXTER & 32ND AVENUE SSW",
        "stop_id": "462",
        "stop_code": "462"
      },
      "geometry": {
        "type": "Point",
        "coordinates": [
          -149.763472,
          61.191352
        ]
      }
    },
    {
      "type": "Feature",
      "properties": {
        "name": "BAXTER & 34TH AVENUE SSW",
        "stop_id": "463",
        "stop_code": "463"
      },
      "geometry": {
        "type": "Point",
        "coordinates": [
          -149.763469,
          61.189751
        ]
      }
    },
    {
      "type": "Feature",
      "properties": {
        "name": "BAXTER & 41ST AVENUE SSE",
        "stop_id": "464",
        "stop_code": "464"
      },
      "geometry": {
        "type": "Point",
        "coordinates": [
          -149.763561,
          61.183777
        ]
      }
    },
    {
      "type": "Feature",
      "properties": {
        "name": "BAXTER & 41ST AVENUE SSW",
        "stop_id": "465",
        "stop_code": "465"
      },
      "geometry": {
        "type": "Point",
        "coordinates": [
          -149.763516,
          61.18369
        ]
      }
    },
    {
      "type": "Feature",
      "properties": {
        "name": "TUDOR & BAXTER WNW",
        "stop_id": "467",
        "stop_code": "467"
      },
      "geometry": {
        "type": "Point",
        "coordinates": [
          -149.765016,
          61.180843
        ]
      }
    },
    {
      "type": "Feature",
      "properties": {
        "name": "PROVIDENCE & ELMORE WSW",
        "stop_id": "479",
        "stop_code": "479"
      },
      "geometry": {
        "type": "Point",
        "coordinates": [
          -149.810984,
          61.18867
        ]
      }
    },
    {
      "type": "Feature",
      "properties": {
        "name": "BAXTER & TUDOR NNE",
        "stop_id": "489",
        "stop_code": "489"
      },
      "geometry": {
        "type": "Point",
        "coordinates": [
          -149.763267,
          61.181326
        ]
      }
    },
    {
      "type": "Feature",
      "properties": {
        "name": "BAXTER & HAMPTON SSE",
        "stop_id": "490",
        "stop_code": "490"
      },
      "geometry": {
        "type": "Point",
        "coordinates": [
          -149.763285,
          61.1857
        ]
      }
    },
    {
      "type": "Feature",
      "properties": {
        "name": "BAXTER & VILLAGE NNE",
        "stop_id": "491",
        "stop_code": "491"
      },
      "geometry": {
        "type": "Point",
        "coordinates": [
          -149.763297,
          61.188302
        ]
      }
    },
    {
      "type": "Feature",
      "properties": {
        "name": "BAXTER & 35TH AVENUE NNE",
        "stop_id": "492",
        "stop_code": "492"
      },
      "geometry": {
        "type": "Point",
        "coordinates": [
          -149.763282,
          61.189607
        ]
      }
    },
    {
      "type": "Feature",
      "properties": {
        "name": "BAXTER & 32ND AVENUE NNE",
        "stop_id": "493",
        "stop_code": "493"
      },
      "geometry": {
        "type": "Point",
        "coordinates": [
          -149.763285,
          61.191899
        ]
      }
    },
    {
      "type": "Feature",
      "properties": {
        "name": "BAXTER & BAXTER ELEM EAST",
        "stop_id": "494",
        "stop_code": "494"
      },
      "geometry": {
        "type": "Point",
        "coordinates": [
          -149.763276,
          61.193904
        ]
      }
    },
    {
      "type": "Feature",
      "properties": {
        "name": "BAXTER & NORTHERN LIGHTS NNE",
        "stop_id": "495",
        "stop_code": "495"
      },
      "geometry": {
        "type": "Point",
        "coordinates": [
          -149.76331,
          61.195988
        ]
      }
    },
    {
      "type": "Feature",
      "properties": {
        "name": "BAXTER & PROSPERITY NNE",
        "stop_id": "496",
        "stop_code": "496"
      },
      "geometry": {
        "type": "Point",
        "coordinates": [
          -149.763327,
          61.199555
        ]
      }
    },
    {
      "type": "Feature",
      "properties": {
        "name": "BEAVER & 1925 BEAVER PL EAST",
        "stop_id": "497",
        "stop_code": "497"
      },
      "geometry": {
        "type": "Point",
        "coordinates": [
          -149.762327,
          61.203002
        ]
      }
    },
    {
      "type": "Feature",
      "properties": {
        "name": "BEAVER & 16TH AVENUE SSE",
        "stop_id": "498",
        "stop_code": "498"
      },
      "geometry": {
        "type": "Point",
        "coordinates": [
          -149.762357,
          61.205915
        ]
      }
    },
    {
      "type": "Feature",
      "properties": {
        "name": "BEAVER & DEBARR SSE",
        "stop_id": "499",
        "stop_code": "499"
      },
      "geometry": {
        "type": "Point",
        "coordinates": [
          -149.762333,
          61.208967
        ]
      }
    },
    {
      "type": "Feature",
      "properties": {
        "name": "DEBARR & NUNAKA ENE",
        "stop_id": "501",
        "stop_code": "501"
      },
      "geometry": {
        "type": "Point",
        "coordinates": [
          -149.768728,
          61.209848
        ]
      }
    },
    {
      "type": "Feature",
      "properties": {
        "name": "DEBARR & BONIFACE ENE",
        "stop_id": "502",
        "stop_code": "502"
      },
      "geometry": {
        "type": "Point",
        "coordinates": [
          -149.774827,
          61.209805
        ]
      }
    },
    {
      "type": "Feature",
      "properties": {
        "name": "DEBARR & BONIFACE WNW",
        "stop_id": "503",
        "stop_code": "503"
      },
      "geometry": {
        "type": "Point",
        "coordinates": [
          -149.77975,
          61.209853
        ]
      }
    },
    {
      "type": "Feature",
      "properties": {
        "name": "DEBARR & L SELKREGG WNW",
        "stop_id": "504",
        "stop_code": "504"
      },
      "geometry": {
        "type": "Point",
        "coordinates": [
          -149.787424,
          61.209822
        ]
      }
    },
    {
      "type": "Feature",
      "properties": {
        "name": "DEBARR & PINE WNW",
        "stop_id": "505",
        "stop_code": "505"
      },
      "geometry": {
        "type": "Point",
        "coordinates": [
          -149.794862,
          61.209833
        ]
      }
    },
    {
      "type": "Feature",
      "properties": {
        "name": "DEBARR & HOYT WNW",
        "stop_id": "506",
        "stop_code": "506"
      },
      "geometry": {
        "type": "Point",
        "coordinates": [
          -149.801093,
          61.209798
        ]
      }
    },
    {
      "type": "Feature",
      "properties": {
        "name": "DEBARR & BRAGAW ENE",
        "stop_id": "507",
        "stop_code": "507"
      },
      "geometry": {
        "type": "Point",
        "coordinates": [
          -149.80572,
          61.209788
        ]
      }
    },
    {
      "type": "Feature",
      "properties": {
        "name": "BRAGAW & DEBARR NNE",
        "stop_id": "508",
        "stop_code": "508"
      },
      "geometry": {
        "type": "Point",
        "coordinates": [
          -149.808129,
          61.210319
        ]
      }
    },
    {
      "type": "Feature",
      "properties": {
        "name": "BRAGAW & SAN CLEMNTSN NNE",
        "stop_id": "509",
        "stop_code": "509"
      },
      "geometry": {
        "type": "Point",
        "coordinates": [
          -149.808149,
          61.213234
        ]
      }
    },
    {
      "type": "Feature",
      "properties": {
        "name": "PENLAND PKWY & BRAGAW WNW",
        "stop_id": "511",
        "stop_code": "511"
      },
      "geometry": {
        "type": "Point",
        "coordinates": [
          -149.810846,
          61.216044
        ]
      }
    },
    {
      "type": "Feature",
      "properties": {
        "name": "PENLAND PKWY & KIDS CT WNW",
        "stop_id": "513",
        "stop_code": "513"
      },
      "geometry": {
        "type": "Point",
        "coordinates": [
          -149.818406,
          61.215584
        ]
      }
    },
    {
      "type": "Feature",
      "properties": {
        "name": "PENLAND PKWY & PAUL LALONE N",
        "stop_id": "514",
        "stop_code": "514"
      },
      "geometry": {
        "type": "Point",
        "coordinates": [
          -149.821331,
          61.215543
        ]
      }
    },
    {
      "type": "Feature",
      "properties": {
        "name": "AIRPORT HGTS & PENLAND SSW",
        "stop_id": "515",
        "stop_code": "515"
      },
      "geometry": {
        "type": "Point",
        "coordinates": [
          -149.824578,
          61.215012
        ]
      }
    },
    {
      "type": "Feature",
      "properties": {
        "name": "ALASKA REGIONAL HOSPITAL N",
        "stop_id": "517",
        "stop_code": "517"
      },
      "geometry": {
        "type": "Point",
        "coordinates": [
          -149.82622,
          61.210218
        ]
      }
    },
    {
      "type": "Feature",
      "properties": {
        "name": "DEBARR & ALASKA REGIONAL DR WNW",
        "stop_id": "518",
        "stop_code": "518"
      },
      "geometry": {
        "type": "Point",
        "coordinates": [
          -149.831827,
          61.209447
        ]
      }
    },
    {
      "type": "Feature",
      "properties": {
        "name": "15TH AVENUE & LAKE OTIS WNW",
        "stop_id": "519",
        "stop_code": "519"
      },
      "geometry": {
        "type": "Point",
        "coordinates": [
          -149.83964,
          61.207825
        ]
      }
    },
    {
      "type": "Feature",
      "properties": {
        "name": "MEDFRA & 16TH AVENUE SSW",
        "stop_id": "522",
        "stop_code": "522"
      },
      "geometry": {
        "type": "Point",
        "coordinates": [
          -149.858705,
          61.205965
        ]
      }
    },
    {
      "type": "Feature",
      "properties": {
        "name": "ORCA & 19TH AVENUE NNW",
        "stop_id": "524",
        "stop_code": "524"
      },
      "geometry": {
        "type": "Point",
        "coordinates": [
          -149.855137,
          61.20403
        ]
      }
    },
    {
      "type": "Feature",
      "properties": {
        "name": "CHUGACH MANOR",
        "stop_id": "525",
        "stop_code": "525"
      },
      "geometry": {
        "type": "Point",
        "coordinates": [
          -149.858588,
          61.20359
        ]
      }
    },
    {
      "type": "Feature",
      "properties": {
        "name": "KARLUK & 19TH AVENUE NNE",
        "stop_id": "526",
        "stop_code": "526"
      },
      "geometry": {
        "type": "Point",
        "coordinates": [
          -149.861427,
          61.204292
        ]
      }
    },
    {
      "type": "Feature",
      "properties": {
        "name": "MEDFRA & 16TH AVENUE NNE",
        "stop_id": "527",
        "stop_code": "527"
      },
      "geometry": {
        "type": "Point",
        "coordinates": [
          -149.858703,
          61.206623
        ]
      }
    },
    {
      "type": "Feature",
      "properties": {
        "name": "MEDFRA & 14TH AVENUE SSE",
        "stop_id": "528",
        "stop_code": "528"
      },
      "geometry": {
        "type": "Point",
        "coordinates": [
          -149.858675,
          61.208605
        ]
      }
    },
    {
      "type": "Feature",
      "properties": {
        "name": "MEDFRA & 12TH AVENUE NNE",
        "stop_id": "529",
        "stop_code": "529"
      },
      "geometry": {
        "type": "Point",
        "coordinates": [
          -149.858688,
          61.210945
        ]
      }
    },
    {
      "type": "Feature",
      "properties": {
        "name": "LATOUCHE & 10TH AVENUE NNE",
        "stop_id": "530",
        "stop_code": "530"
      },
      "geometry": {
        "type": "Point",
        "coordinates": [
          -149.860802,
          61.212848
        ]
      }
    },
    {
      "type": "Feature",
      "properties": {
        "name": "9TH AVENUE & KARLUK ENE",
        "stop_id": "531",
        "stop_code": "531"
      },
      "geometry": {
        "type": "Point",
        "coordinates": [
          -149.861645,
          61.21369
        ]
      }
    },
    {
      "type": "Feature",
      "properties": {
        "name": "9TH AVENUE & INGRA WNW",
        "stop_id": "532",
        "stop_code": "532"
      },
      "geometry": {
        "type": "Point",
        "coordinates": [
          -149.867796,
          61.213626
        ]
      }
    },
    {
      "type": "Feature",
      "properties": {
        "name": "CORDOVA & 8TH AVENUE SSE",
        "stop_id": "535",
        "stop_code": "535"
      },
      "geometry": {
        "type": "Point",
        "coordinates": [
          -149.87905,
          61.21454
        ]
      }
    },
    {
      "type": "Feature",
      "properties": {
        "name": "CORDOVA & 10TH AVENUE SSW",
        "stop_id": "549",
        "stop_code": "549"
      },
      "geometry": {
        "type": "Point",
        "coordinates": [
          -149.879318,
          61.212347
        ]
      }
    },
    {
      "type": "Feature",
      "properties": {
        "name": "CORDOVA & 11TH AVENUE SSW",
        "stop_id": "550",
        "stop_code": "550"
      },
      "geometry": {
        "type": "Point",
        "coordinates": [
          -149.87933,
          61.211372
        ]
      }
    },
    {
      "type": "Feature",
      "properties": {
        "name": "13TH AVENUE & CORDOVA ESE",
        "stop_id": "551",
        "stop_code": "551"
      },
      "geometry": {
        "type": "Point",
        "coordinates": [
          -149.878498,
          61.20967
        ]
      }
    },
    {
      "type": "Feature",
      "properties": {
        "name": "13TH AVENUE & EAGLE ESE",
        "stop_id": "552",
        "stop_code": "552"
      },
      "geometry": {
        "type": "Point",
        "coordinates": [
          -149.874198,
          61.209663
        ]
      }
    },
    {
      "type": "Feature",
      "properties": {
        "name": "13TH AVENUE & GAMBELL ESE",
        "stop_id": "553",
        "stop_code": "553"
      },
      "geometry": {
        "type": "Point",
        "coordinates": [
          -149.870026,
          61.209588
        ]
      }
    },
    {
      "type": "Feature",
      "properties": {
        "name": "15TH AVENUE & GAMBELL ESE",
        "stop_id": "554",
        "stop_code": "554"
      },
      "geometry": {
        "type": "Point",
        "coordinates": [
          -149.869659,
          61.207585
        ]
      }
    },
    {
      "type": "Feature",
      "properties": {
        "name": "15TH AVENUE & INGRA ESE",
        "stop_id": "555",
        "stop_code": "555"
      },
      "geometry": {
        "type": "Point",
        "coordinates": [
          -149.865505,
          61.207623
        ]
      }
    },
    {
      "type": "Feature",
      "properties": {
        "name": "15TH AVENUE & KARLUK ESE",
        "stop_id": "556",
        "stop_code": "556"
      },
      "geometry": {
        "type": "Point",
        "coordinates": [
          -149.862068,
          61.207618
        ]
      }
    },
    {
      "type": "Feature",
      "properties": {
        "name": "15TH AVENUE & ORCA ESE",
        "stop_id": "558",
        "stop_code": "558"
      },
      "geometry": {
        "type": "Point",
        "coordinates": [
          -149.853882,
          61.207627
        ]
      }
    },
    {
      "type": "Feature",
      "properties": {
        "name": "15TH AVENUE & SITKA ESE",
        "stop_id": "559",
        "stop_code": "559"
      },
      "geometry": {
        "type": "Point",
        "coordinates": [
          -149.844498,
          61.207632
        ]
      }
    },
    {
      "type": "Feature",
      "properties": {
        "name": "SUNRISE & 18TH AVENUE SSW",
        "stop_id": "564",
        "stop_code": "564"
      },
      "geometry": {
        "type": "Point",
        "coordinates": [
          -149.826421,
          61.203897
        ]
      }
    },
    {
      "type": "Feature",
      "properties": {
        "name": "SUNRISE & 20TH AVENUE NNW",
        "stop_id": "565",
        "stop_code": "565"
      },
      "geometry": {
        "type": "Point",
        "coordinates": [
          -149.82703,
          61.20255
        ]
      }
    },
    {
      "type": "Feature",
      "properties": {
        "name": "20TH AVENUE & ALDER WNW",
        "stop_id": "566",
        "stop_code": "566"
      },
      "geometry": {
        "type": "Point",
        "coordinates": [
          -149.829908,
          61.202498
        ]
      }
    },
    {
      "type": "Feature",
      "properties": {
        "name": "20TH AVENUE & LOGAN WNW",
        "stop_id": "567",
        "stop_code": "567"
      },
      "geometry": {
        "type": "Point",
        "coordinates": [
          -149.834068,
          61.20247
        ]
      }
    },
    {
      "type": "Feature",
      "properties": {
        "name": "20TH AVENUE & TALKEETNA WNW",
        "stop_id": "568",
        "stop_code": "568"
      },
      "geometry": {
        "type": "Point",
        "coordinates": [
          -149.837104,
          61.202478
        ]
      }
    },
    {
      "type": "Feature",
      "properties": {
        "name": "LAKE OTIS & MAPLE SSW",
        "stop_id": "569",
        "stop_code": "569"
      },
      "geometry": {
        "type": "Point",
        "coordinates": [
          -149.838437,
          61.19794
        ]
      }
    },
    {
      "type": "Feature",
      "properties": {
        "name": "PROVIDENCE & PROVIDENCE HOSPITAL",
        "stop_id": "575",
        "stop_code": "575"
      },
      "geometry": {
        "type": "Point",
        "coordinates": [
          -149.816965,
          61.18976
        ]
      }
    },
    {
      "type": "Feature",
      "properties": {
        "name": "ELMORE & SHARON GAGNON SSW",
        "stop_id": "577",
        "stop_code": "577"
      },