{
  "type": "FeatureCollection",
  "features": [
    {
      "type": "Feature",
      "properties": {
        "name": "C STREET & 7TH AVENUE SSW",
        "stop_id": "0003",
        "stop_code": null
      },
      "geometry": {
        "type": "Point",
        "coordinates": [
          -149.887389,
          61.215112
        ]
      }
    },
    {
      "type": "Feature",
      "properties": {
        "name": "C STREET & 10TH AVENUE SSW",
        "stop_id": "0004",
        "stop_code": null
      },
      "geometry": {
        "type": "Point",
        "coordinates": [
          -149.887517,
          61.212407
        ]
      }
    },
    {
      "type": "Feature",
      "properties": {
        "name": "C STREET & 12TH AVENUE SSW",
        "stop_id": "0005",
        "stop_code": null
      },
      "geometry": {
        "type": "Point",
        "coordinates": [
          -149.887484,
          61.210297
        ]
      }
    },
    {
      "type": "Feature",
      "properties": {
        "name": "C STREET & 14TH AVENUE NNW",
        "stop_id": "0006",
        "stop_code": null
      },
      "geometry": {
        "type": "Point",
        "coordinates": [
          -149.887494,
          61.20868
        ]
      }
    },
    {
      "type": "Feature",
      "properties": {
        "name": "C STREET & 16TH AVENUE SSW",
        "stop_id": "0007",
        "stop_code": null
      },
      "geometry": {
        "type": "Point",
        "coordinates": [
          -149.887536,
          61.20577
        ]
      }
    },
    {
      "type": "Feature",
      "properties": {
        "name": "C STREET & 19TH AVENUE NNW",
        "stop_id": "0008",
        "stop_code": null
      },
      "geometry": {
        "type": "Point",
        "coordinates": [
          -149.887627,
          61.203688
        ]
      }
    },
    {
      "type": "Feature",
      "properties": {
        "name": "C STREET & 22ND AVENUE NNW",
        "stop_id": "0009",
        "stop_code": null
      },
      "geometry": {
        "type": "Point",
        "coordinates": [
          -149.88753,
          61.20084
        ]
      }
    },
    {
      "type": "Feature",
      "properties": {
        "name": "C STREET & FIREWEED SSW",
        "stop_id": "0010",
        "stop_code": null
      },
      "geometry": {
        "type": "Point",
        "coordinates": [
          -149.88703,
          61.197747
        ]
      }
    },
    {
      "type": "Feature",
      "properties": {
        "name": "C STREET & BENSON NNW",
        "stop_id": "0011",
        "stop_code": null
      },
      "geometry": {
        "type": "Point",
        "coordinates": [
          -149.886782,
          61.194452
        ]
      }
    },
    {
      "type": "Feature",
      "properties": {
        "name": "C STREET & 31ST AVENUE NNW",
        "stop_id": "0012",
        "stop_code": null
      },
      "geometry": {
        "type": "Point",
        "coordinates": [
          -149.886782,
          61.19271
        ]
      }
    },
    {
      "type": "Feature",
      "properties": {
        "name": "36TH AVENUE & C STREET ESE",
        "stop_id": "0014",
        "stop_code": null
      },
      "geometry": {
        "type": "Point",
        "coordinates": [
          -149.885213,
          61.187997
        ]
      }
    },
    {
      "type": "Feature",
      "properties": {
        "name": "36TH AVENUE & A STREET ESE",
        "stop_id": "0015",
        "stop_code": null
      },
      "geometry": {
        "type": "Point",
        "coordinates": [
          -149.88181,
          61.187958
        ]
      }
    },
    {
      "type": "Feature",
      "properties": {
        "name": "36TH AVENUE & DENALI WSW",
        "stop_id": "0016",
        "stop_code": null
      },
      "geometry": {
        "type": "Point",
        "coordinates": [
          -149.877381,
          61.187985
        ]
      }
    },
    {
      "type": "Feature",
      "properties": {
        "name": "36TH AVENUE & OLD SEWARD WSW",
        "stop_id": "0017",
        "stop_code": null
      },
      "geometry": {
        "type": "Point",
        "coordinates": [
          -149.869002,
          61.187998
        ]
      }
    },
    {
      "type": "Feature",
      "properties": {
        "name": "36TH AVENUE & NEW SEWARD ESE",
        "stop_id": "0018",
        "stop_code": null
      },
      "geometry": {
        "type": "Point",
        "coordinates": [
          -149.862833,
          61.187973
        ]
      }
    },
    {
      "type": "Feature",
      "properties": {
        "name": "36TH AVENUE & LATOUCHE WSW",
        "stop_id": "0019",
        "stop_code": null
      },
      "geometry": {
        "type": "Point",
        "coordinates": [
          -149.859445,
          61.187991
        ]
      }
    },
    {
      "type": "Feature",
      "properties": {
        "name": "36TH AVENUE & LOCARNO ESE",
        "stop_id": "0020",
        "stop_code": null
      },
      "geometry": {
        "type": "Point",
        "coordinates": [
          -149.855387,
          61.188013
        ]
      }
    },
    {
      "type": "Feature",
      "properties": {
        "name": "36TH AVENUE & MACINNES ESE",
        "stop_id": "0021",
        "stop_code": null
      },
      "geometry": {
        "type": "Point",
        "coordinates": [
          -149.848835,
          61.18795
        ]
      }
    },
    {
      "type": "Feature",
      "properties": {
        "name": "LAKE OTIS & 36TH AVENUE SSW",
        "stop_id": "0023",
        "stop_code": null
      },
      "geometry": {
        "type": "Point",
        "coordinates": [
          -149.838461,
          61.187323
        ]
      }
    },
    {
      "type": "Feature",
      "properties": {
        "name": "LAKE OTIS & 38TH AVENUE SSW",
        "stop_id": "0024",
        "stop_code": null
      },
      "geometry": {
        "type": "Point",
        "coordinates": [
          -149.838381,
          61.185758
        ]
      }
    },
    {
      "type": "Feature",
      "properties": {
        "name": "LAKE OTIS & 42ND AVENUE NNW",
        "stop_id": "0025",
        "stop_code": null
      },
      "geometry": {
        "type": "Point",
        "coordinates": [
          -149.838371,
          61.182748
        ]
      }
    },
    {
      "type": "Feature",
      "properties": {
        "name": "LAKE OTIS & TUDOR SSW",
        "stop_id": "0026",
        "stop_code": null
      },
      "geometry": {
        "type": "Point",
        "coordinates": [
          -149.838407,
          61.179662
        ]
      }
    },
    {
      "type": "Feature",
      "properties": {
        "name": "LAKE OTIS & HOMESTEAD SSW",
        "stop_id": "0027",
        "stop_code": null
      },
      "geometry": {
        "type": "Point",
        "coordinates": [
          -149.838305,
          61.177118
        ]
      }
    },
    {
      "type": "Feature",
      "properties": {
        "name": "LAKE OTIS & WALDRON SSW",
        "stop_id": "0028",
        "stop_code": null
      },
      "geometry": {
        "type": "Point",
        "coordinates": [
          -149.838437,
          61.174352
        ]
      }
    },
    {
      "type": "Feature",
      "properties": {
        "name": "LAKE OTIS & 54TH AVENUE SSW",
        "stop_id": "0029",
        "stop_code": null
      },
      "geometry": {
        "type": "Point",
        "coordinates": [
          -149.838337,
          61.171577
        ]
      }
    },
    {
      "type": "Feature",
      "properties": {
        "name": "LAKE OTIS & PAGO PAGO NNW",
        "stop_id": "0030",
        "stop_code": null
      },
      "geometry": {
        "type": "Point",
        "coordinates": [
          -149.838328,
          61.168868
        ]
      }
    },
    {
      "type": "Feature",
      "properties": {
        "name": "LAKE OTIS & DOWLING SSW",
        "stop_id": "0031",
        "stop_code": null
      },
      "geometry": {
        "type": "Point",
        "coordinates": [
          -149.838429,
          61.165866
        ]
      }
    },
    {
      "type": "Feature",
      "properties": {
        "name": "LAKE OTIS & 63RD AVENUE SSW",
        "stop_id": "0032",
        "stop_code": null
      },
      "geometry": {
        "type": "Point",
        "coordinates": [
          -149.835965,
          61.163457
        ]
      }
    },
    {
      "type": "Feature",
      "properties": {
        "name": "LAKE OTIS & 68TH AVENUE SSW",
        "stop_id": "0033",
        "stop_code": null
      },
      "geometry": {
        "type": "Point",
        "coordinates": [
          -149.834451,
          61.158822
        ]
      }
    },
    {
      "type": "Feature",
      "properties": {
        "name": "LAKE OTIS & 72ND AVENUE SSW",
        "stop_id": "0034",
        "stop_code": null
      },
      "geometry": {
        "type": "Point",
        "coordinates": [
          -149.83444,
          61.155016
        ]
      }
    },
    {
      "type": "Feature",
      "properties": {
        "name": "LAKE OTIS & LORE SSW",
        "stop_id": "0035",
        "stop_code": null
      },
      "geometry": {
        "type": "Point",
        "coordinates": [
          -149.834421,
          61.151458
        ]
      }
    },
    {
      "type": "Feature",
      "properties": {
        "name": "LAKE OTIS & 80TH AVENUE SSW",
        "stop_id": "0036",
        "stop_code": null
      },
      "geometry": {
        "type": "Point",
        "coordinates": [
          -149.834409,
          61.147558
        ]
      }
    },
    {
      "type": "Feature",
      "properties": {
        "name": "LAKE OTIS & 85TH AVENUE NNW",
        "stop_id": "0037",
        "stop_code": null
      },
      "geometry": {
        "type": "Point",
        "coordinates": [
          -149.834352,
          61.14402
        ]
      }
    },
    {
      "type": "Feature",
      "properties": {
        "name": "LAKE OTIS & 88TH AVENUE SSW",
        "stop_id": "0038",
        "stop_code": null
      },
      "geometry": {
        "type": "Point",
        "coordinates": [
          -149.834389,
          61.140783
        ]
      }
    },
    {
      "type": "Feature",
      "properties": {
        "name": "INDEPENDENCE & SENTRY NNW",
        "stop_id": "0043",
        "stop_code": null
      },
      "geometry": {
        "type": "Point",
        "coordinates": [
          -149.841718,
          61.134678
        ]
      }
    },
    {
      "type": "Feature",
      "properties": {
        "name": "INDEPENDENCE & VANGUARD SSW",
        "stop_id": "0044",
        "stop_code": null
      },
      "geometry": {
        "type": "Point",
        "coordinates": [
          -149.845513,
          61.131886
        ]
      }
    },
    {
      "type": "Feature",
      "properties": {
        "name": "INDEPENDENCE & COLONY SSW",
        "stop_id": "0045",
        "stop_code": null
      },
      "geometry": {
        "type": "Point",
        "coordinates": [
          -149.845924,
          61.130331
        ]
      }
    },
    {
      "type": "Feature",
      "properties": {
        "name": "JAMESTOWN & INDEPENDENCE SSW",
        "stop_id": "0046",
        "stop_code": null
      },
      "geometry": {
        "type": "Point",
        "coordinates": [
          -149.845565,
          61.128495
        ]
      }
    },
    {
      "type": "Feature",
      "properties": {
        "name": "JAMESTOWN & MRTHAS VNYRD NNW",
        "stop_id": "0047",
        "stop_code": null
      },
      "geometry": {
        "type": "Point",
        "coordinates": [
          -149.847048,
          61.127568
        ]
      }
    },
    {
      "type": "Feature",
      "properties": {
        "name": "JAMESTOWN & ELCADORE SSW",
        "stop_id": "0048",
        "stop_code": null
      },
      "geometry": {
        "type": "Point",
        "coordinates": [
          -149.848115,
          61.12522
        ]
      }
    },
    {
      "type": "Feature",
      "properties": {
        "name": "COMMODORE & ELCADORE NNW",
        "stop_id": "0049",
        "stop_code": null
      },
      "geometry": {
        "type": "Point",
        "coordinates": [
          -149.851073,
          61.123773
        ]
      }
    },
    {
      "type": "Feature",
      "properties": {
        "name": "O'MALLEY & BRAYTON WNW",
        "stop_id": "0050",
        "stop_code": null
      },
      "geometry": {
        "type": "Point",
        "coordinates": [
          -149.85608,
          61.123212
        ]
      }
    },
    {
      "type": "Feature",
      "properties": {
        "name": "OLD SEWARD & O'MALLEY NNE",
        "stop_id": "0051",
        "stop_code": null
      },
      "geometry": {
        "type": "Point",
        "coordinates": [
          -149.863409,
          61.123595
        ]
      }
    },
    {
      "type": "Feature",
      "properties": {
        "name": "OLD SEWARD & LINGON BERRY SSE",
        "stop_id": "0052",
        "stop_code": null
      },
      "geometry": {
        "type": "Point",
        "coordinates": [
          -149.863708,
          61.127702
        ]
      }
    },
    {
      "type": "Feature",
      "properties": {
        "name": "OLD SEWARD & SUNDOWN SSE",
        "stop_id": "0053",
        "stop_code": null
      },
      "geometry": {
        "type": "Point",
        "coordinates": [
          -149.863711,
          61.132639
        ]
      }
    },
    {
      "type": "Feature",
      "properties": {
        "name": "OLD SEWARD & ABBOTT NNE",
        "stop_id": "0055",
        "stop_code": null
      },
      "geometry": {
        "type": "Point",
        "coordinates": [
          -149.863757,
          61.1379
        ]
      }
    },
    {
      "type": "Feature",
      "properties": {
        "name": "OLD SEWARD & SUNDOWN NNW",
        "stop_id": "0060",
        "stop_code": null
      },
      "geometry": {
        "type": "Point",
        "coordinates": [
          -149.864123,
          61.133199
        ]
      }
    },
    {
      "type": "Feature",
      "properties": {
        "name": "OLD SEWARD & ABBOTT SSW",
        "stop_id": "0061",
        "stop_code": null
      },
      "geometry": {
        "type": "Point",
        "coordinates": [
          -149.864298,
          61.136813
        ]
      }
    },
    {
      "type": "Feature",
      "properties": {
        "name": "OLD SEWARD & LAKEWOOD NNW",
        "stop_id": "0062",
        "stop_code": null
      },
      "geometry": {
        "type": "Point",
        "coordinates": [
          -149.864169,
          61.134619
        ]
      }
    },
    {
      "type": "Feature",
      "properties": {
        "name": "OLD SEWARD & 100TH AV SSW",
        "stop_id": "0063",
        "stop_code": null
      },
      "geometry": {
        "type": "Point",
        "coordinates": [
          -149.864178,
          61.129562
        ]
      }
    },
    {
      "type": "Feature",
      "properties": {
        "name": "OLD SEWARD & LINGON BERRY SSW",
        "stop_id": "0064",
        "stop_code": null
      },
      "geometry": {
        "type": "Point",
        "coordinates": [
          -149.864139,
          61.127452
        ]
      }
    },
    {
      "type": "Feature",
      "properties": {
        "name": "O'MALLEY & O'MALLEY CTR WSW",
        "stop_id": "0065",
        "stop_code": null
      },
      "geometry": {
        "type": "Point",
        "coordinates": [
          -149.860897,
          61.122972
        ]
      }
    },
    {
      "type": "Feature",
      "properties": {
        "name": "COMMODORE & ELCADORE NNE",
        "stop_id": "0066",
        "stop_code": null
      },
      "geometry": {
        "type": "Point",
        "coordinates": [
          -149.850715,
          61.123772
        ]
      }
    },
    {
      "type": "Feature",
      "properties": {
        "name": "JAMESTOWN & COMMODORE NNE",
        "stop_id": "0067",
        "stop_code": null
      },
      "geometry": {
        "type": "Point",
        "coordinates": [
          -149.847875,
          61.12629
        ]
      }
    },
    {
      "type": "Feature",
      "properties": {
        "name": "JAMESTOWN & MRTHAS VNYRD NNE",
        "stop_id": "0068",
        "stop_code": null
      },
      "geometry": {
        "type": "Point",
        "coordinates": [
          -149.846782,
          61.127573
        ]
      }
    },
    {
      "type": "Feature",
      "properties": {
        "name": "INDEPENDENCE & JAMESTOWN WNW",
        "stop_id": "0069",
        "stop_code": null
      },
      "geometry": {
        "type": "Point",
        "coordinates": [
          -149.845261,
          61.129296
        ]
      }
    },
    {
      "type": "Feature",
      "properties": {
        "name": "INDEPENDENCE & COLONY NNE",
        "stop_id": "0070",
        "stop_code": null
      },
      "geometry": {
        "type": "Point",
        "coordinates": [
          -149.845695,
          61.131217
        ]
      }
    },
    {
      "type": "Feature",
      "properties": {
        "name": "INDEPENDENCE & VANGUARD NNE",
        "stop_id": "0071",
        "stop_code": null
      },
      "geometry": {
        "type": "Point",
        "coordinates": [
          -149.844029,
          61.13268
        ]
      }
    },
    {
      "type": "Feature",
      "properties": {
        "name": "INDEPENDENCE & SENTRY SSE",
        "stop_id": "0072",
        "stop_code": null
      },
      "geometry": {
        "type": "Point",
        "coordinates": [
          -149.841703,
          61.133822
        ]
      }
    },
    {
      "type": "Feature",
      "properties": {
        "name": "LAKE OTIS & ABBOTT NNE",
        "stop_id": "0075",
        "stop_code": null
      },
      "geometry": {
        "type": "Point",
        "coordinates": [
          -149.833852,
          61.138063
        ]
      }
    },
    {
      "type": "Feature",
      "properties": {
        "name": "LAKE OTIS & 88TH AVENUE NNE",
        "stop_id": "0076",
        "stop_code": null
      },
      "geometry": {
        "type": "Point",
        "coordinates": [
          -149.83388,
          61.141627
        ]
      }
    },
    {
      "type": "Feature",
      "properties": {
        "name": "LAKE OTIS & 84TH AVENUE SSE",
        "stop_id": "0077",
        "stop_code": null
      },
      "geometry": {
        "type": "Point",
        "coordinates": [
          -149.833938,
          61.143467
        ]
      }
    },
    {
      "type": "Feature",
      "properties": {
        "name": "LAKE OTIS & 80TH AVENUE SSE",
        "stop_id": "0078",
        "stop_code": null
      },
      "geometry": {
        "type": "Point",
        "coordinates": [
          -149.833924,
          61.14801
        ]
      }
    },
    {
      "type": "Feature",
      "properties": {
        "name": "LAKE OTIS & LORE NNE",
        "stop_id": "0079",
        "stop_code": null
      },
      "geometry": {
        "type": "Point",
        "coordinates": [
          -149.833936,
          61.152491
        ]
      }
    },
    {
      "type": "Feature",
      "properties": {
        "name": "LAKE OTIS & 72ND AVENUE NNE",
        "stop_id": "0080",
        "stop_code": null
      },
      "geometry": {
        "type": "Point",
        "coordinates": [
          -149.833987,
          61.156035
        ]
      }
    },
    {
      "type": "Feature",
      "properties": {
        "name": "LAKE OTIS & 68TH AVENUE NNE",
        "stop_id": "0081",
        "stop_code": null
      },
      "geometry": {
        "type": "Point",
        "coordinates": [
          -149.833996,
          61.159673
        ]
      }
    },
    {
      "type": "Feature",
      "properties": {
        "name": "LAKE OTIS & 63RD AVENUE SSE",
        "stop_id": "0082",
        "stop_code": null
      },
      "geometry": {
        "type": "Point",
        "coordinates": [
          -149.834732,
          61.163002
        ]
      }
    },
    {
      "type": "Feature",
      "properties": {
        "name": "LAKE OTIS & DOWLING NNE",
        "stop_id": "0083",
        "stop_code": null
      },
      "geometry": {
        "type": "Point",
        "coordinates": [
          -149.837928,
          61.167108
        ]
      }
    },
    {
      "type": "Feature",
      "properties": {
        "name": "LAKE OTIS & PAGO PAGO NNE",
        "stop_id": "0084",
        "stop_code": null
      },
      "geometry": {
        "type": "Point",
        "coordinates": [
          -149.837984,
          61.168973
        ]
      }
    },
    {
      "type": "Feature",
      "properties": {
        "name": "LAKE OTIS & YMCA E",
        "stop_id": "0085",
        "stop_code": null
      },
      "geometry": {
        "type": "Point",
        "coordinates": [
          -149.837991,
          61.17212
        ]
      }
    },
    {
      "type": "Feature",
      "properties": {
        "name": "LAKE OTIS & WALDRON NNE",
        "stop_id": "0086",
        "stop_code": null
      },
      "geometry": {
        "type": "Point",
        "coordinates": [
          -149.837927,
          61.175673
        ]
      }
    },
    {
      "type": "Feature",
      "properties": {
        "name": "LAKE OTIS & 48TH AVENUE NNE",
        "stop_id": "0087",
        "stop_code": null
      },
      "geometry": {
        "type": "Point",
        "coordinates": [
          -149.837896,
          61.178336
        ]
      }
    },
    {
      "type": "Feature",
      "properties": {
        "name": "LAKE OTIS & TUDOR NNE",
        "stop_id": "0088",
        "stop_code": null
      },
      "geometry": {
        "type": "Point",
        "coordinates": [
          -149.83782,
          61.181575
        ]
      }
    },
    {
      "type": "Feature",
      "properties": {
        "name": "LAKE OTIS & 42ND AVENUE NNE",
        "stop_id": "0089",
        "stop_code": null
      },
      "geometry": {
        "type": "Point",
        "coordinates": [
          -149.838011,
          61.183027
        ]
      }
    },
    {
      "type": "Feature",
      "properties": {
        "name": "LAKE OTIS & 40TH AVENUE NNE",
        "stop_id": "0090",
        "stop_code": null
      },
      "geometry": {
        "type": "Point",
        "coordinates": [
          -149.837934,
          61.18525
        ]
      }
    },
    {
      "type": "Feature",
      "properties": {
        "name": "36TH AVENUE & LAKE OTIS WNW",
        "stop_id": "0091",
        "stop_code": null
      },
      "geometry": {
        "type": "Point",
        "coordinates": [
          -149.838994,
          61.188133
        ]
      }
    },
    {
      "type": "Feature",
      "properties": {
        "name": "36TH AVENUE & MACINNES WNW",
        "stop_id": "0093",
        "stop_code": null
      },
      "geometry": {
        "type": "Point",
        "coordinates": [
          -149.85022,
          61.188129
        ]
      }
    },
    {
      "type": "Feature",
      "properties": {
        "name": "36TH AVENUE & LATOUCHE WNW",
        "stop_id": "0095",
        "stop_code": null
      },
      "geometry": {
        "type": "Point",
        "coordinates": [
          -149.859491,
          61.188197
        ]
      }
    },
    {
      "type": "Feature",
      "properties": {
        "name": "36TH AVENUE & DENALI WNW",
        "stop_id": "0098",
        "stop_code": null
      },
      "geometry": {
        "type": "Point",
        "coordinates": [
          -149.878195,
          61.188197
        ]
      }
    },
    {
      "type": "Feature",
      "properties": {
        "name": "A STREET & 36TH AVENUE NNE",
        "stop_id": "0099",
        "stop_code": null
      },
      "geometry": {
        "type": "Point",
        "coordinates": [
          -149.88289,
          61.189005
        ]
      }
    },
    {
      "type": "Feature",
      "properties": {
        "name": "A STREET & 31ST AVENUE SSE",
        "stop_id": "0100",
        "stop_code": null
      },
      "geometry": {
        "type": "Point",
        "coordinates": [
          -149.88293,
          61.192401
        ]
      }
    },
    {
      "type": "Feature",
      "properties": {
        "name": "A STREET & NORTHERN LIGHTS NNE",
        "stop_id": "0101",
        "stop_code": null
      },
      "geometry": {
        "type": "Point",
        "coordinates": [
          -149.882935,
          61.195933
        ]
      }
    },
    {
      "type": "Feature",
      "properties": {
        "name": "A STREET & FIREWEED NNE",
        "stop_id": "0102",
        "stop_code": null
      },
      "geometry": {
        "type": "Point",
        "coordinates": [
          -149.882807,
          61.19917
        ]
      }
    },
    {
      "type": "Feature",
      "properties": {
        "name": "A STREET & CHESTER CREEK TRAIL",
        "stop_id": "0103",
        "stop_code": null
      },
      "geometry": {
        "type": "Point",
        "coordinates": [
          -149.883145,
          61.204353
        ]
      }
    },
    {
      "type": "Feature",
      "properties": {
        "name": "A STREET & 16TH AVENUE NNE",
        "stop_id": "0104",
        "stop_code": null
      },
      "geometry": {
        "type": "Point",
        "coordinates": [
          -149.882898,
          61.20683
        ]
      }
    },
    {
      "type": "Feature",
      "properties": {
        "name": "A STREET & 13TH AVENUE NNE",
        "stop_id": "0105",
        "stop_code": null
      },
      "geometry": {
        "type": "Point",
        "coordinates": [
          -149.883095,
          61.210195
        ]
      }
    },
    {
      "type": "Feature",
      "properties": {
        "name": "A STREET & 11TH AVENUE NNE",
        "stop_id": "0106",
        "stop_code": null
      },
      "geometry": {
        "type": "Point",
        "coordinates": [
          -149.883277,
          61.212138
        ]
      }
    },
    {
      "type": "Feature",
      "properties": {
        "name": "SPENARD & 25TH AVENUE SSW",
        "stop_id": "0127",
        "stop_code": null
      },
      "geometry": {
        "type": "Point",
        "coordinates": [
          -149.905568,
          61.197572
        ]
      }
    },
    {
      "type": "Feature",
      "properties": {
        "name": "SPENARD & 27TH AVENUE SSW",
        "stop_id": "0128",
        "stop_code": null
      },
      "geometry": {
        "type": "Point",
        "coordinates": [
          -149.905579,
          61.196082
        ]
      }
    },
    {
      "type": "Feature",
      "properties": {
        "name": "SPENARD & BENSON NNW",
        "stop_id": "0129",
        "stop_code": null
      },
      "geometry": {
        "type": "Point",
        "coordinates": [
          -149.905787,
          61.194405
        ]
      }
    },
    {
      "type": "Feature",
      "properties": {
        "name": "SPENARD & 30TH AVENUE NNW",
        "stop_id": "0130",
        "stop_code": null
      },
      "geometry": {
        "type": "Point",
        "coordinates": [
          -149.905774,
          61.193006
        ]
      }
    },
    {
      "type": "Feature",
      "properties": {
        "name": "SPENARD & 33RD AVENUE NNW",
        "stop_id": "0131",
        "stop_code": null
      },
      "geometry": {
        "type": "Point",
        "coordinates": [
          -149.907482,
          61.190675
        ]
      }
    },
    {
      "type": "Feature",
      "properties": {
        "name": "SPENARD & 34TH AVENUE SSW",
        "stop_id": "0132",
        "stop_code": null
      },
      "geometry": {
        "type": "Point",
        "coordinates": [
          -149.908678,
          61.189042
        ]
      }
    },
    {
      "type": "Feature",
      "properties": {
        "name": "SPENARD & MINNESOTA ENE",
        "stop_id": "0133",
        "stop_code": null
      },
      "geometry": {
        "type": "Point",
        "coordinates": [
          -149.912189,
          61.186984
        ]
      }
    },
    {
      "type": "Feature",
      "properties": {
        "name": "SPENARD & GREENLAND WNW",
        "stop_id": "0134",
        "stop_code": null
      },
      "geometry": {
        "type": "Point",
        "coordinates": [
          -149.914835,
          61.186667
        ]
      }
    },
    {
      "type": "Feature",
      "properties": {
        "name": "SPENARD & OREGON WNW",
        "stop_id": "0135",
        "stop_code": null
      },
      "geometry": {
        "type": "Point",
        "coordinates": [
          -149.918527,
          61.186078
        ]
      }
    },
    {
      "type": "Feature",
      "properties": {
        "name": "SPENARD & MCRAE WNW",
        "stop_id": "0136",
        "stop_code": null
      },
      "geometry": {
        "type": "Point",
        "coordinates": [
          -149.923969,
          61.185175
        ]
      }
    },
    {
      "type": "Feature",
      "properties": {
        "name": "SPENARD & NORTHWOOD ENE",
        "stop_id": "0137",
        "stop_code": null
      },
      "geometry": {
        "type": "Point",
        "coordinates": [
          -149.927104,
          61.183869
        ]
      }
    },
    {
      "type": "Feature",
      "properties": {
        "name": "SPENARD & WISCONSIN SSW",
        "stop_id": "0141",
        "stop_code": null
      },
      "geometry": {
        "type": "Point",
        "coordinates": [
          -149.939618,
          61.178722
        ]
      }
    },
    {
      "type": "Feature",
      "properties": {
        "name": "SPENARD & BREEZEWOOD SSW",
        "stop_id": "0142",
        "stop_code": null
      },
      "geometry": {
        "type": "Point",
        "coordinates": [
          -149.942042,
          61.177061
        ]
      }
    },
    {
      "type": "Feature",
      "properties": {
        "name": "SPENARD & INTL ARPT RD NNW",
        "stop_id": "0143",
        "stop_code": null
      },
      "geometry": {
        "type": "Point",
        "coordinates": [
          -149.944283,
          61.175228
        ]
      }
    },
    {
      "type": "Feature",
      "properties": {
        "name": "JEWEL LAKE & INTL AIRPORT SSW",
        "stop_id": "0144",
        "stop_code": null
      },
      "geometry": {
        "type": "Point",
        "coordinates": [
          -149.943333,
          61.173138
        ]
      }
    },
    {
      "type": "Feature",
      "properties": {
        "name": "COLLINS WAY & JEWEL LAKE SSW",
        "stop_id": "0145",
        "stop_code": null
      },
      "geometry": {
        "type": "Point",
        "coordinates": [
          -149.942722,
          61.166328
        ]
      }
    },
    {
      "type": "Feature",
      "properties": {
        "name": "COLLINS WAY & 62ND AVENUE NNW",
        "stop_id": "0146",
        "stop_code": null
      },
      "geometry": {
        "type": "Point",
        "coordinates": [
          -149.94039,
          61.164603
        ]
      }
    },
    {
      "type": "Feature",
      "properties": {
        "name": "64TH AVENUE & COLLINS WAY ESE",
        "stop_id": "0147",
        "stop_code": null
      },
      "geometry": {
        "type": "Point",
        "coordinates": [
          -149.938009,
          61.162726
        ]
      }
    },
    {
      "type": "Feature",
      "properties": {
        "name": "CRANBERRY & HOLLY SSW",
        "stop_id": "0148",
        "stop_code": null
      },
      "geometry": {
        "type": "Point",
        "coordinates": [
          -149.936982,
          61.160777
        ]
      }
    },
    {
      "type": "Feature",
      "properties": {
        "name": "RASPBERRY & CRANBERRY WNW",
        "stop_id": "0149",
        "stop_code": null
      },
      "geometry": {
        "type": "Point",
        "coordinates": [
          -149.937835,
          61.159472
        ]
      }
    },
    {
      "type": "Feature",
      "properties": {
        "name": "RASPBERRY & BLACKBERRY WNW",
        "stop_id": "0151",
        "stop_code": null
      },
      "geometry": {
        "type": "Point",
        "coordinates": [
          -149.945457,
          61.159343
        ]
      }
    },
    {
      "type": "Feature",
      "properties": {
        "name": "JEWEL LAKE & RASPBERRY SSW",
        "stop_id": "0154",
        "stop_code": null
      },
      "geometry": {
        "type": "Point",
        "coordinates": [
          -149.95201,
          61.158085
        ]
      }
    },
    {
      "type": "Feature",
      "properties": {
        "name": "JEWEL LAKE & 74TH AVENUE NNW",
        "stop_id": "0155",
        "stop_code": null
      },
      "geometry": {
        "type": "Point",
        "coordinates": [
          -149.952108,
          61.153931
        ]
      }
    },
    {
      "type": "Feature",
      "properties": {
        "name": "JEWEL LAKE & STRAWBERRY SSW",
        "stop_id": "0156",
        "stop_code": null
      },
      "geometry": {
        "type": "Point",
        "coordinates": [
          -149.952125,
          61.151515
        ]
      }
    },
    {
      "type": "Feature",
      "properties": {
        "name": "JEWEL LAKE & 79TH COURT SSW",
        "stop_id": "0157",
        "stop_code": null
      },
      "geometry": {
        "type": "Point",
        "coordinates": [
          -149.952135,
          61.149323
        ]
      }
    },
    {
      "type": "Feature",
      "properties": {
        "name": "JEWEL LAKE & 82ND AVENUE NNW",
        "stop_id": "0158",
        "stop_code": null
      },
      "geometry": {
        "type": "Point",
        "coordinates": [
          -149.95212,
          61.146888
        ]
      }
    },
    {
      "type": "Feature",
      "properties": {
        "name": "JEWEL LAKE & 84TH AVENUE NNW",
        "stop_id": "0159",
        "stop_code": null
      },
      "geometry": {
        "type": "Point",
        "coordinates": [
          -149.952091,
          61.144944
        ]
      }
    },
    {
      "type": "Feature",
      "properties": {
        "name": "88TH AVENUE & JEWEL LAKE ESE",
        "stop_id": "0162",
        "stop_code": null
      },
      "geometry": {
        "type": "Point",
        "coordinates": [
          -149.94999,
          61.141015
        ]
      }
    },
    {
      "type": "Feature",
      "properties": {
        "name": "88TH AVENUE & ALAMOSA ESE",
        "stop_id": "0163",
        "stop_code": null
      },
      "geometry": {
        "type": "Point",
        "coordinates": [
          -149.945966,
          61.141002
        ]
      }
    },
    {
      "type": "Feature",
      "properties": {
        "name": "88TH AVENUE & DEWBERRY ESE",
        "stop_id": "0164",
        "stop_code": null
      },
      "geometry": {
        "type": "Point",
        "coordinates": [
          -149.939802,
          61.141005
        ]
      }
    },
    {
      "type": "Feature",
      "properties": {
        "name": "88TH AVENUE & CRANBERRY ESE",
        "stop_id": "0165",
        "stop_code": null
      },
      "geometry": {
        "type": "Point",
        "coordinates": [
          -149.936335,
          61.140991
        ]
      }
    },
    {
      "type": "Feature",
      "properties": {
        "name": "88TH AVENUE & FOREST VILLAGE ESE",
        "stop_id": "0166",
        "stop_code": null
      },
      "geometry": {
        "type": "Point",
        "coordinates": [
          -149.933042,
          61.141015
        ]
      }
    },
    {
      "type": "Feature",
      "properties": {
        "name": "ARLENE & DIMOND NNW",
        "stop_id": "0167",
        "stop_code": null
      },
      "geometry": {
        "type": "Point",
        "coordinates": [
          -149.929531,
          61.138401
        ]
      }
    },
    {
      "type": "Feature",
      "properties": {
        "name": "DIMOND & VICTOR ESE",
        "stop_id": "0177",
        "stop_code": null
      },
      "geometry": {
        "type": "Point",
        "coordinates": [
          -149.919242,
          61.137278
        ]
      }
    },
    {
      "type": "Feature",
      "properties": {
        "name": "DIMOND & MINNESOTA ESE",
        "stop_id": "0179",
        "stop_code": null
      },
      "geometry": {
        "type": "Point",
        "coordinates": [
          -149.90525,
          61.140868
        ]
      }
    },
    {
      "type": "Feature",
      "properties": {
        "name": "DIMOND & ANGELA ESE",
        "stop_id": "0180",
        "stop_code": null
      },
      "geometry": {
        "type": "Point",
        "coordinates": [
          -149.914885,
          61.13814
        ]
      }
    },
    {
      "type": "Feature",
      "properties": {
        "name": "DIMOND & DIMOND CTR DR WNW",
        "stop_id": "0189",
        "stop_code": null
      },
      "geometry": {
        "type": "Point",
        "coordinates": [
          -149.87267,
          61.144917
        ]
      }
    },
    {
      "type": "Feature",
      "properties": {
        "name": "DIMOND & C STREET WNW",
        "stop_id": "0191",
        "stop_code": null
      },
      "geometry": {
        "type": "Point",
        "coordinates": [
          -149.888768,
          61.144912
        ]
      }
    },
    {
      "type": "Feature",
      "properties": {
        "name": "DIMOND & MINNESOTA ENE",
        "stop_id": "0193",
        "stop_code": null
      },
      "geometry": {
        "type": "Point",
        "coordinates": [
          -149.9054,
          61.141257
        ]
      }
    },
    {
      "type": "Feature",
      "properties": {
        "name": "DIMOND & ANGELA ENE",
        "stop_id": "0194",
        "stop_code": null
      },
      "geometry": {
        "type": "Point",
        "coordinates": [
          -149.915182,
          61.138602
        ]
      }
    },
    {
      "type": "Feature",
      "properties": {
        "name": "DIMOND & VICTOR WNW",
        "stop_id": "0195",
        "stop_code": null
      },
      "geometry": {
        "type": "Point",
        "coordinates": [
          -149.923468,
          61.137655
        ]
      }
    },
    {
      "type": "Feature",
      "properties": {
        "name": "88TH AVENUE & FOREST VILLAGE ENE",
        "stop_id": "0198",
        "stop_code": null
      },
      "geometry": {
        "type": "Point",
        "coordinates": [
          -149.933542,
          61.14115
        ]
      }
    },
    {
      "type": "Feature",
      "properties": {
        "name": "88TH AVENUE & CRANBERRY WNW",
        "stop_id": "0199",
        "stop_code": null
      },
      "geometry": {
        "type": "Point",
        "coordinates": [
          -149.937753,
          61.141153
        ]
      }
    },
    {
      "type": "Feature",
      "properties": {
        "name": "88TH AVENUE & DEWBERRY WNW",
        "stop_id": "0200",
        "stop_code": null
      },
      "geometry": {
        "type": "Point",
        "coordinates": [
          -149.941505,
          61.141195
        ]
      }
    },
    {
      "type": "Feature",
      "properties": {
        "name": "88TH AVENUE & ALAMOSA WNW",
        "stop_id": "0201",
        "stop_code": null
      },
      "geometry": {
        "type": "Point",
        "coordinates": [
          -149.94666,
          61.14118
        ]
      }
    },
    {
      "type": "Feature",
      "properties": {
        "name": "88TH AVENUE & MOLANARY WNW",
        "stop_id": "0202",
        "stop_code": null
      },
      "geometry": {
        "type": "Point",
        "coordinates": [
          -149.949873,
          61.141198
        ]
      }
    },
    {
      "type": "Feature",
      "properties": {
        "name": "JEWEL LAKE & 88TH AVENUE NNE",
        "stop_id": "0210",
        "stop_code": null
      },
      "geometry": {
        "type": "Point",
        "coordinates": [
          -149.951685,
          61.141705
        ]
      }
    },
    {
      "type": "Feature",
      "properties": {
        "name": "JEWEL LAKE & 84TH AVENUE SSE",
        "stop_id": "0212",
        "stop_code": null
      },
      "geometry": {
        "type": "Point",
        "coordinates": [
          -149.951693,
          61.144537
        ]
      }
    },
    {
      "type": "Feature",
      "properties": {
        "name": "JEWEL LAKE & 82ND AVENUE NNE",
        "stop_id": "0213",
        "stop_code": null
      },
      "geometry": {
        "type": "Point",
        "coordinates": [
          -149.951743,
          61.146968
        ]
      }
    },
    {
      "type": "Feature",
      "properties": {
        "name": "JEWEL LAKE & 79TH AVENUE SSE",
        "stop_id": "0214",
        "stop_code": null
      },
      "geometry": {
        "type": "Point",
        "coordinates": [
          -149.951648,
          61.149122
        ]
      }
    },
    {
      "type": "Feature",
      "properties": {
        "name": "JEWEL LAKE & STRAWBERRY NNE",
        "stop_id": "0215",
        "stop_code": null
      },
      "geometry": {
        "type": "Point",
        "coordinates": [
          -149.951774,
          61.152264
        ]
      }
    },
    {
      "type": "Feature",
      "properties": {
        "name": "JEWEL LAKE & 74TH AVENUE NNE",
        "stop_id": "0216",
        "stop_code": null
      },
      "geometry": {
        "type": "Point",
        "coordinates": [
          -149.951595,
          61.154355
        ]
      }
    },
    {
      "type": "Feature",
      "properties": {
        "name": "JEWEL LAKE & WEIMER NNE",
        "stop_id": "0217",
        "stop_code": null
      },
      "geometry": {
        "type": "Point",
        "coordinates": [
          -149.951649,
          61.156645
        ]
      }
    },
    {
      "type": "Feature",
      "properties": {
        "name": "RASPBERRY & JEWEL LAKE ESE",
        "stop_id": "0218",
        "stop_code": null
      },
      "geometry": {
        "type": "Point",
        "coordinates": [
          -149.950402,
          61.159048
        ]
      }
    },
    {
      "type": "Feature",
      "properties": {
        "name": "RASPBERRY & CHEVIGNY ESE",
        "stop_id": "0219",
        "stop_code": null
      },
      "geometry": {
        "type": "Point",
        "coordinates": [
          -149.945903,
          61.159134
        ]
      }
    },
    {
      "type": "Feature",
      "properties": {
        "name": "RASPBERRY & CRANBERRY WSW",
        "stop_id": "0220",
        "stop_code": null
      },
      "geometry": {
        "type": "Point",
        "coordinates": [
          -149.941101,
          61.159056
        ]
      }
    },
    {
      "type": "Feature",
      "properties": {
        "name": "CRANBERRY & 65TH AVENUE SSE",
        "stop_id": "0222",
        "stop_code": null
      },
      "geometry": {
        "type": "Point",
        "coordinates": [
          -149.936765,
          61.161315
        ]
      }
    },
    {
      "type": "Feature",
      "properties": {
        "name": "64TH AVENUE & COLLINS WAY ENE",
        "stop_id": "0223",
        "stop_code": null
      },
      "geometry": {
        "type": "Point",
        "coordinates": [
          -149.938342,
          61.162802
        ]
      }
    },
    {
      "type": "Feature",
      "properties": {
        "name": "COLLINS WAY & 62ND AVENUE NNE",
        "stop_id": "0224",
        "stop_code": null
      },
      "geometry": {
        "type": "Point",
        "coordinates": [
          -149.940259,
          61.164687
        ]
      }
    },
    {
      "type": "Feature",
      "properties": {
        "name": "COLLINS WAY & JEWEL LAKE SSE",
        "stop_id": "0225",
        "stop_code": null
      },
      "geometry": {
        "type": "Point",
        "coordinates": [
          -149.942513,
          61.166285
        ]
      }
    },
    {
      "type": "Feature",
      "properties": {
        "name": "JEWEL LAKE & INTL AIRPORT SSE",
        "stop_id": "0226",
        "stop_code": null
      },
      "geometry": {
        "type": "Point",
        "coordinates": [
          -149.942827,
          61.173339
        ]
      }
    },
    {
      "type": "Feature",
      "properties": {
        "name": "SPENARD & INTL ARPT RD NNE",
        "stop_id": "0227",
        "stop_code": null
      },
      "geometry": {
        "type": "Point",
        "coordinates": [
          -149.943772,
          61.17512
        ]
      }
    },
    {
      "type": "Feature",
      "properties": {
        "name": "SPENARD & VALLEYWOOD NNE",
        "stop_id": "0228",
        "stop_code": null
      },
      "geometry": {
        "type": "Point",
        "coordinates": [
          -149.940313,
          61.177654
        ]
      }
    },
    {
      "type": "Feature",
      "properties": {
        "name": "SPENARD & WISCONSIN NNE",
        "stop_id": "0229",
        "stop_code": null
      },
      "geometry": {
        "type": "Point",
        "coordinates": [
          -149.938168,
          61.17964
        ]
      }
    },
    {
      "type": "Feature",
      "properties": {
        "name": "SPENARD & MCKINLEY SSE",
        "stop_id": "0232",
        "stop_code": null
      },
      "geometry": {
        "type": "Point",
        "coordinates": [
          -149.926171,
          61.183984
        ]
      }
    },
    {
      "type": "Feature",
      "properties": {
        "name": "SPENARD & TAFT ESE",
        "stop_id": "0233",
        "stop_code": null
      },
      "geometry": {
        "type": "Point",
        "coordinates": [
          -149.922413,
          61.185367
        ]
      }
    },
    {
      "type": "Feature",
      "properties": {
        "name": "SPENARD & WYOMING WSW",
        "stop_id": "0234",
        "stop_code": null
      },
      "geometry": {
        "type": "Point",
        "coordinates": [
          -149.916088,
          61.186327
        ]
      }
    },
    {
      "type": "Feature",
      "properties": {
        "name": "SPENARD & MINNESOTA ESE",
        "stop_id": "0235",
        "stop_code": null
      },
      "geometry": {
        "type": "Point",
        "coordinates": [
          -149.911704,
          61.186843
        ]
      }
    },
    {
      "type": "Feature",
      "properties": {
        "name": "SPENARD & 36TH AVENUE NNE",
        "stop_id": "0236",
        "stop_code": null
      },
      "geometry": {
        "type": "Point",
        "coordinates": [
          -149.90845,
          61.18847
        ]
      }
    },
    {
      "type": "Feature",
      "properties": {
        "name": "SPENARD & 33RD AVENUE NNE",
        "stop_id": "0237",
        "stop_code": null
      },
      "geometry": {
        "type": "Point",
        "coordinates": [
          -149.906626,
          61.191293
        ]
      }
    },
    {
      "type": "Feature",
      "properties": {
        "name": "SPENARD & Benson Blvd SSE",
        "stop_id": "0238",
        "stop_code": null
      },
      "geometry": {
        "type": "Point",
        "coordinates": [
          -149.905291,
          61.193564
        ]
      }
    },
    {
      "type": "Feature",
      "properties": {
        "name": "SPENARD & NORTHERN LIGHTS NNE",
        "stop_id": "0239",
        "stop_code": null
      },
      "geometry": {
        "type": "Point",
        "coordinates": [
          -149.905288,
          61.195857
        ]
      }
    },
    {
      "type": "Feature",
      "properties": {
        "name": "SPENARD & 26TH AVE NNE",
        "stop_id": "0240",
        "stop_code": null
      },
      "geometry": {
        "type": "Point",
        "coordinates": [
          -149.905387,
          61.197453
        ]
      }
    },
    {
      "type": "Feature",
      "properties": {
        "name": "17TH AVENUE & E STREET WSW",
        "stop_id": "0245",
        "stop_code": null
      },
      "geometry": {
        "type": "Point",
        "coordinates": [
          -149.892528,
          61.205239
        ]
      }
    },
    {
      "type": "Feature",
      "properties": {
        "name": "A STREET & 8TH AVENUE NNE",
        "stop_id": "0250",
        "stop_code": null
      },
      "geometry": {
        "type": "Point",
        "coordinates": [
          -149.883119,
          61.215023
        ]
      }
    },
    {
      "type": "Feature",
      "properties": {
        "name": "BENSON & SPENARD ESE",
        "stop_id": "0275",
        "stop_code": null
      },
      "geometry": {
        "type": "Point",
        "coordinates": [
          -149.904488,
          61.193943
        ]
      }
    },
    {
      "type": "Feature",
      "properties": {
        "name": "BENSON & ARCTIC ESE",
        "stop_id": "0276",
        "stop_code": null
      },
      "geometry": {
        "type": "Point",
        "coordinates": [
          -149.896939,
          61.194139
        ]
      }
    },
    {
      "type": "Feature",
      "properties": {
        "name": "BENSON & CHEECHAKO ESE",
        "stop_id": "0277",
        "stop_code": null
      },
      "geometry": {
        "type": "Point",
        "coordinates": [
          -149.893564,
          61.194175
        ]
      }
    },
    {
      "type": "Feature",
      "properties": {
        "name": "BENSON & EUREKA ESE",
        "stop_id": "0278",
        "stop_code": null
      },
      "geometry": {
        "type": "Point",
        "coordinates": [
          -149.88993,
          61.194168
        ]
      }
    },
    {
      "type": "Feature",
      "properties": {
        "name": "BENSON & C STREET ESE",
        "stop_id": "0279",
        "stop_code": null
      },
      "geometry": {
        "type": "Point",
        "coordinates": [
          -149.885681,
          61.194147
        ]
      }
    },
    {
      "type": "Feature",
      "properties": {
        "name": "BENSON & A STREET ESE",
        "stop_id": "0280",
        "stop_code": null
      },
      "geometry": {
        "type": "Point",
        "coordinates": [
          -149.879827,
          61.193691
        ]
      }
    },
    {
      "type": "Feature",
      "properties": {
        "name": "BENSON & DENALI ESE",
        "stop_id": "0281",
        "stop_code": null
      },
      "geometry": {
        "type": "Point",
        "coordinates": [
          -149.87513,
          61.193382
        ]
      }
    },
    {
      "type": "Feature",
      "properties": {
        "name": "BENSON & NEW SEWARD ESE",
        "stop_id": "0282",
        "stop_code": null
      },
      "geometry": {
        "type": "Point",
        "coordinates": [
          -149.866475,
          61.193323
        ]
      }
    },
    {
      "type": "Feature",
      "properties": {
        "name": "BENSON & LATOUCHE ESE",
        "stop_id": "0283",
        "stop_code": null
      },
      "geometry": {
        "type": "Point",
        "coordinates": [
          -149.85976,
          61.194517
        ]
      }
    },
    {
      "type": "Feature",
      "properties": {
        "name": "NORTHERN LIGHTS & REDWOOD ESE",
        "stop_id": "0284",
        "stop_code": null
      },
      "geometry": {
        "type": "Point",
        "coordinates": [
          -149.855217,
          61.195305
        ]
      }
    },
    {
      "type": "Feature",
      "properties": {
        "name": "NORTHERN LIGHTS & DRAKE WSW",
        "stop_id": "0285",
        "stop_code": null
      },
      "geometry": {
        "type": "Point",
        "coordinates": [
          -149.846589,
          61.195224
        ]
      }
    },
    {
      "type": "Feature",
      "properties": {
        "name": "NORTHERN LIGHTS & LAKE OTIS WSW",
        "stop_id": "0286",
        "stop_code": null
      },
      "geometry": {
        "type": "Point",
        "coordinates": [
          -149.842519,
          61.19522
        ]
      }
    },
    {
      "type": "Feature",
      "properties": {
        "name": "PROVIDENCE & PIPER ESE",
        "stop_id": "0291",
        "stop_code": null
      },
      "geometry": {
        "type": "Point",
        "coordinates": [
          -149.828212,
          61.187901
        ]
      }
    },
    {
      "type": "Feature",
      "properties": {
        "name": "UAA DRIVE & PROVIDENCE NNE",
        "stop_id": "0293",
        "stop_code": null
      },
      "geometry": {
        "type": "Point",
        "coordinates": [
          -149.82235,
          61.190268
        ]
      }
    },
    {
      "type": "Feature",
      "properties": {
        "name": "BONIFACE & 24TH AVENUE SSE",
        "stop_id": "0303",
        "stop_code": null
      },
      "geometry": {
        "type": "Point",
        "coordinates": [
          -149.778171,
          61.198303
        ]
      }
    },
    {
      "type": "Feature",
      "properties": {
        "name": "PEMBROKE & COLLEGE SSE",
        "stop_id": "0304",
        "stop_code": null
      },
      "geometry": {
        "type": "Point",
        "coordinates": [
          -149.777904,
          61.200348
        ]
      }
    },
    {
      "type": "Feature",
      "properties": {
        "name": "PENN & RADCLIFFE SSE",
        "stop_id": "0305",
        "stop_code": null
      },
      "geometry": {
        "type": "Point",
        "coordinates": [
          -149.776269,
          61.201935
        ]
      }
    },
    {
      "type": "Feature",
      "properties": {
        "name": "STERLING & RICHARDSON ESE",
        "stop_id": "0306",
        "stop_code": null
      },
      "geometry": {
        "type": "Point",
        "coordinates": [
          -149.774433,
          61.204108
        ]
      }
    },
    {
      "type": "Feature",
      "properties": {
        "name": "NUNAKA & FULTON NNE",
        "stop_id": "0307",
        "stop_code": null
      },
      "geometry": {
        "type": "Point",
        "coordinates": [
          -149.772307,
          61.20459
        ]
      }
    },
    {
      "type": "Feature",
      "properties": {
        "name": "NUNAKA & MILEY NNE",
        "stop_id": "0308",
        "stop_code": null
      },
      "geometry": {
        "type": "Point",
        "coordinates": [
          -149.769914,
          61.207598
        ]
      }
    },
    {
      "type": "Feature",
      "properties": {
        "name": "NUNAKA & DEBARR SSE",
        "stop_id": "0309",
        "stop_code": null
      },
      "geometry": {
        "type": "Point",
        "coordinates": [
          -149.769919,
          61.209235
        ]
      }
    },
    {
      "type": "Feature",
      "properties": {
        "name": "DEBARR & BEAVER ESE",
        "stop_id": "0311",
        "stop_code": null
      },
      "geometry": {
        "type": "Point",
        "coordinates": [
          -149.761838,
          61.209644
        ]
      }
    },
    {
      "type": "Feature",
      "properties": {
        "name": "DEBARR & TURPIN ESE",
        "stop_id": "0312",
        "stop_code": null
      },
      "geometry": {
        "type": "Point",
        "coordinates": [
          -149.754945,
          61.209625
        ]
      }
    },
    {
      "type": "Feature",
      "properties": {
        "name": "CHANDALAR & 2441 EAST",
        "stop_id": "0321",
        "stop_code": null
      },
      "geometry": {
        "type": "Point",
        "coordinates": [
          -149.74496,
          61.198167
        ]
      }
    },
    {
      "type": "Feature",
      "properties": {
        "name": "CHANDALAR & 2251 EAST",
        "stop_id": "0322",
        "stop_code": null
      },
      "geometry": {
        "type": "Point",
        "coordinates": [
          -149.7445,
          61.1998
        ]
      }
    },
    {
      "type": "Feature",
      "properties": {
        "name": "CHANDALAR & 20TH AVENUE SSE",
        "stop_id": "0323",
        "stop_code": null
      },
      "geometry": {
        "type": "Point",
        "coordinates": [
          -149.741649,
          61.202818
        ]
      }
    },
    {
      "type": "Feature",
      "properties": {
        "name": "20TH AVENUE & DIOMEDE WNW",
        "stop_id": "0324",
        "stop_code": null
      },
      "geometry": {
        "type": "Point",
        "coordinates": [
          -149.744487,
          61.203331
        ]
      }
    },
    {
      "type": "Feature",
      "properties": {
        "name": "PATTERSON & 20TH AVENUE NNE",
        "stop_id": "0325",
        "stop_code": null
      },
      "geometry": {
        "type": "Point",
        "coordinates": [
          -149.748303,
          61.203858
        ]
      }
    },
    {
      "type": "Feature",
      "properties": {
        "name": "PATTERSON & 17TH AVENUE NNE",
        "stop_id": "0326",
        "stop_code": null
      },
      "geometry": {
        "type": "Point",
        "coordinates": [
          -149.748294,
          61.206028
        ]
      }
    },
    {
      "type": "Feature",
      "properties": {
        "name": "PATTERSON & MINK NNE",
        "stop_id": "0327",
        "stop_code": null
      },
      "geometry": {
        "type": "Point",
        "coordinates": [
          -149.748303,
          61.209246
        ]
      }
    },
    {
      "type": "Feature",
      "properties": {
        "name": "DEBARR & PATTERSON ESE",
        "stop_id": "0330",
        "stop_code": null
      },
      "geometry": {
        "type": "Point",
        "coordinates": [
          -149.747608,
          61.209649
        ]
      }
    },
    {
      "type": "Feature",
      "properties": {
        "name": "DEBARR & CREEKSIDE CTR WSW",
        "stop_id": "0331",
        "stop_code": null
      },
      "geometry": {
        "type": "Point",
        "coordinates": [
          -149.741853,
          61.20966
        ]
      }
    },
    {
      "type": "Feature",
      "properties": {
        "name": "DEBARR & GRASS CREEK ESE",
        "stop_id": "0332",
        "stop_code": null
      },
      "geometry": {
        "type": "Point",
        "coordinates": [
          -149.73645,
          61.20967
        ]
      }
    },
    {
      "type": "Feature",
      "properties": {
        "name": "DEBARR & CREEKSIDE CTR ENE",
        "stop_id": "0356",
        "stop_code": null
      },
      "geometry": {
        "type": "Point",
        "coordinates": [
          -149.740572,
          61.209853
        ]
      }
    },
    {
      "type": "Feature",
      "properties": {
        "name": "PATTERSON & MINK SSW",
        "stop_id": "0358",
        "stop_code": null
      },
      "geometry": {
        "type": "Point",
        "coordinates": [
          -149.748511,
          61.208911
        ]
      }
    },
    {
      "type": "Feature",
      "properties": {
        "name": "PATTERSON & 16TH AVENUE SSW",
        "stop_id": "0359",
        "stop_code": null
      },
      "geometry": {
        "type": "Point",
        "coordinates": [
          -149.748513,
          61.205968
        ]
      }
    },
    {
      "type": "Feature",
      "properties": {
        "name": "20TH AVENUE & BARBOA WSW",
        "stop_id": "0360",
        "stop_code": null
      },
      "geometry": {
        "type": "Point",
        "coordinates": [
          -149.745098,
          61.203389
        ]
      }
    },
    {
      "type": "Feature",
      "properties": {
        "name": "CHANDALAR & 21ST AVENUE SSW",
        "stop_id": "0361",
        "stop_code": null
      },
      "geometry": {
        "type": "Point",
        "coordinates": [
          -149.742006,
          61.201805
        ]
      }
    },
    {
      "type": "Feature",
      "properties": {
        "name": "CHANDALAR & 2300 WEST",
        "stop_id": "0362",
        "stop_code": null
      },
      "geometry": {
        "type": "Point",
        "coordinates": [
          -149.744775,
          61.199678
        ]
      }
    },
    {
      "type": "Feature",
      "properties": {
        "name": "CHANDALAR & 2450 WEST",
        "stop_id": "0363",
        "stop_code": null
      },
      "geometry": {
        "type": "Point",
        "coordinates": [
          -149.7452,
          61.197753
        ]
      }
    },
    {
      "type": "Feature",
      "properties": {
        "name": "NORTHERN LIGHTS & AUGUSTINE WNW",
        "stop_id": "0364",
        "stop_code": null
      },
      "geometry": {
        "type": "Point",
        "coordinates": [
          -149.744502,
          61.19545
        ]
      }
    },
    {
      "type": "Feature",
      "properties": {
        "name": "NORTHERN LIGHTS & PATTERSON WNW",
        "stop_id": "0365",
        "stop_code": null
      },
      "geometry": {
        "type": "Point",
        "coordinates": [
          -149.749775,
          61.195522
        ]
      }
    },
    {
      "type": "Feature",
      "properties": {
        "name": "NORTHERN LIGHTS & BRITTANY WNW",
        "stop_id": "0366",
        "stop_code": null
      },
      "geometry": {
        "type": "Point",
        "coordinates": [
          -149.755352,
          61.195497
        ]
      }
    },
    {
      "type": "Feature",
      "properties": {
        "name": "NORTHERN LIGHTS & CIMMARON WNW",
        "stop_id": "0367",
        "stop_code": null
      },
      "geometry": {
        "type": "Point",
        "coordinates": [
          -149.759163,
          61.195452
        ]
      }
    },
    {
      "type": "Feature",
      "properties": {
        "name": "NORTHERN LIGHTS & BAXTER WNW",
        "stop_id": "0368",
        "stop_code": null
      },
      "geometry": {
        "type": "Point",
        "coordinates": [
          -149.764613,
          61.195355
        ]
      }
    },
    {
      "type": "Feature",
      "properties": {
        "name": "NORTHERN LIGHTS & DERBY WNW",
        "stop_id": "0369",
        "stop_code": null
      },
      "geometry": {
        "type": "Point",
        "coordinates": [
          -149.769305,
          61.195348
        ]
      }
    },
    {
      "type": "Feature",
      "properties": {
        "name": "DEBARR & PATTERSON WNW",
        "stop_id": "0372",
        "stop_code": null
      },
      "geometry": {
        "type": "Point",
        "coordinates": [
          -149.749293,
          61.20982
        ]
      }
    },
    {
      "type": "Feature",
      "properties": {
        "name": "DEBARR & TURPIN WNW",
        "stop_id": "0373",
        "stop_code": null
      },
      "geometry": {
        "type": "Point",
        "coordinates": [
          -149.7573,
          61.209842
        ]
      }
    },
    {
      "type": "Feature",
      "properties": {
        "name": "DEBARR & EDWARD ENE",
        "stop_id": "0374",
        "stop_code": null
      },
      "geometry": {
        "type": "Point",
        "coordinates": [
          -149.763379,
          61.209834
        ]
      }
    },
    {
      "type": "Feature",
      "properties": {
        "name": "NUNAKA & DEBARR SSW",
        "stop_id": "0375",
        "stop_code": null
      },
      "geometry": {
        "type": "Point",
        "coordinates": [
          -149.770232,
          61.209018
        ]
      }
    },
    {
      "type": "Feature",
      "properties": {
        "name": "NUNAKA & MILEY SSW",
        "stop_id": "0376",
        "stop_code": null
      },
      "geometry": {
        "type": "Point",
        "coordinates": [
          -149.770178,
          61.207347
        ]
      }
    },
    {
      "type": "Feature",
      "properties": {
        "name": "NUNAKA & PERRY SSW",
        "stop_id": "0377",
        "stop_code": null
      },
      "geometry": {
        "type": "Point",
        "coordinates": [
          -149.771173,
          61.205735
        ]
      }
    },
    {
      "type": "Feature",
      "properties": {
        "name": "NUNAKA & STERLING NNW",
        "stop_id": "0378",
        "stop_code": null
      },
      "geometry": {
        "type": "Point",
        "coordinates": [
          -149.773158,
          61.204161
        ]
      }
    },
    {
      "type": "Feature",
      "properties": {
        "name": "STERLING & TWINING ENE",
        "stop_id": "0379",
        "stop_code": null
      },
      "geometry": {
        "type": "Point",
        "coordinates": [
          -149.77618,
          61.204646
        ]
      }
    },
    {
      "type": "Feature",
      "properties": {
        "name": "PENN & RADCLIFFE NNW",
        "stop_id": "0380",
        "stop_code": null
      },
      "geometry": {
        "type": "Point",
        "coordinates": [
          -149.776316,
          61.202205
        ]
      }
    },
    {
      "type": "Feature",
      "properties": {
        "name": "PEMBROKE & COLLEGE SSW",
        "stop_id": "0381",
        "stop_code": null
      },
      "geometry": {
        "type": "Point",
        "coordinates": [
          -149.778045,
          61.2
        ]
      }
    },
    {
      "type": "Feature",
      "properties": {
        "name": "BONIFACE & 24TH AVENUE SSW",
        "stop_id": "0382",
        "stop_code": null
      },
      "geometry": {
        "type": "Point",
        "coordinates": [
          -149.77865,
          61.198325
        ]
      }
    },
    {
      "type": "Feature",
      "properties": {
        "name": "NORTHERN LIGHTS & BONIFACE WNW",
        "stop_id": "0385",
        "stop_code": null
      },
      "geometry": {
        "type": "Point",
        "coordinates": [
          -149.780008,
          61.195391
        ]
      }
    },
    {
      "type": "Feature",
      "properties": {
        "name": "NORTHERN LIGHTS & WESLEYAN WNW",
        "stop_id": "0386",
        "stop_code": null
      },
      "geometry": {
        "type": "Point",
        "coordinates": [
          -149.79,
          61.195305
        ]
      }
    },
    {
      "type": "Feature",
      "properties": {
        "name": "NORTHERN LIGHTS & EAST HS ENE",
        "stop_id": "0387",
        "stop_code": null
      },
      "geometry": {
        "type": "Point",
        "coordinates": [
          -149.8014,
          61.199067
        ]
      }
    },
    {
      "type": "Feature",
      "properties": {
        "name": "NORTHERN LIGHTS & BRAGAW WNW",
        "stop_id": "0388",
        "stop_code": null
      },
      "geometry": {
        "type": "Point",
        "coordinates": [
          -149.809731,
          61.199085
        ]
      }
    },
    {
      "type": "Feature",
      "properties": {
        "name": "UAA DRIVE & NORTHERN LIGHTS SSW",
        "stop_id": "0391",
        "stop_code": null
      },
      "geometry": {
        "type": "Point",
        "coordinates": [
          -149.827138,
          61.195275
        ]
      }
    },
    {
      "type": "Feature",
      "properties": {
        "name": "UAA DRIVE & PROVIDENCE NNW",
        "stop_id": "0392",
        "stop_code": null
      },
      "geometry": {
        "type": "Point",
        "coordinates": [
          -149.82331,
          61.19092
        ]
      }
    },
    {
      "type": "Feature",
      "properties": {
        "name": "LAKE OTIS & PROVIDENCE NNE",
        "stop_id": "0396",
        "stop_code": null
      },
      "geometry": {
        "type": "Point",
        "coordinates": [
          -149.83798,
          61.188701
        ]
      }
    },
    {
      "type": "Feature",
      "properties": {
        "name": "LAKE OTIS & CORNELL SSE",
        "stop_id": "0397",
        "stop_code": null
      },
      "geometry": {
        "type": "Point",
        "coordinates": [
          -149.83806,
          61.191391
        ]
      }
    },
    {
      "type": "Feature",
      "properties": {
        "name": "NORTHERN LIGHTS & LAKE OTIS WNW",
        "stop_id": "0398",
        "stop_code": null
      },
      "geometry": {
        "type": "Point",
        "coordinates": [
          -149.839335,
          61.19553
        ]
      }
    },
    {
      "type": "Feature",
      "properties": {
        "name": "NORTHERN LIGHTS & MAPLEWOOD WNW",
        "stop_id": "0399",
        "stop_code": null
      },
      "geometry": {
        "type": "Point",
        "coordinates": [
          -149.846752,
          61.195528
        ]
      }
    },
    {
      "type": "Feature",
      "properties": {
        "name": "NORTHERN LIGHTS & GLENWOOD WNW",
        "stop_id": "0400",
        "stop_code": null
      },
      "geometry": {
        "type": "Point",
        "coordinates": [
          -149.853672,
          61.195574
        ]
      }
    },
    {
      "type": "Feature",
      "properties": {
        "name": "NORTHERN LIGHTS & LATOUCHE WNW",
        "stop_id": "0401",
        "stop_code": null
      },
      "geometry": {
        "type": "Point",
        "coordinates": [
          -149.861679,
          61.19531
        ]
      }
    },
    {
      "type": "Feature",
      "properties": {
        "name": "NORTHERN LIGHTS & GAMBELL ENE",
        "stop_id": "0402",
        "stop_code": null
      },
      "geometry": {
        "type": "Point",
        "coordinates": [
          -149.869879,
          61.195373
        ]
      }
    },
    {
      "type": "Feature",
      "properties": {
        "name": "NORTHERN LIGHTS & DENALI ENE",
        "stop_id": "0403",
        "stop_code": null
      },
      "geometry": {
        "type": "Point",
        "coordinates": [
          -149.875965,
          61.19537
        ]
      }
    },
    {
      "type": "Feature",
      "properties": {
        "name": "NORTHERN LIGHTS & CORDOVA WNW",
        "stop_id": "0404",
        "stop_code": null
      },
      "geometry": {
        "type": "Point",
        "coordinates": [
          -149.87924,
          61.195355
        ]
      }
    },
    {
      "type": "Feature",
      "properties": {
        "name": "NORTHERN LIGHTS & A STREET WNW",
        "stop_id": "0405",
        "stop_code": null
      },
      "geometry": {
        "type": "Point",
        "coordinates": [
          -149.883969,
          61.195353
        ]
      }
    },
    {
      "type": "Feature",
      "properties": {
        "name": "NORTHERN LIGHTS & C STREET WNW",
        "stop_id": "0406",
        "stop_code": null
      },
      "geometry": {
        "type": "Point",
        "coordinates": [
          -149.8875,
          61.195404
        ]
      }
    },
    {
      "type": "Feature",
      "properties": {
        "name": "NORTHERN LIGHTS & BERING ENE",
        "stop_id": "0407",
        "stop_code": null
      },
      "geometry": {
        "type": "Point",
        "coordinates": [
          -149.89513,
          61.195371
        ]
      }
    },
    {
      "type": "Feature",
      "properties": {
        "name": "NORTHERN LIGHTS & ARCTIC WNW",
        "stop_id": "0408",
        "stop_code": null
      },
      "geometry": {
        "type": "Point",
        "coordinates": [
          -149.898737,
          61.195351
        ]
      }
    },
    {
      "type": "Feature",
      "properties": {
        "name": "NORTHERN LIGHTS & SPENARD WNW",
        "stop_id": "0409",
        "stop_code": null
      },
      "geometry": {
        "type": "Point",
        "coordinates": [
          -149.906828,
          61.195379
        ]
      }
    },
    {
      "type": "Feature",
      "properties": {
        "name": "NORTHERN LIGHTS & MINNESOTA ENE",
        "stop_id": "0410",
        "stop_code": null
      },
      "geometry": {
        "type": "Point",
        "coordinates": [
          -149.9106,
          61.195367
        ]
      }
    },
    {
      "type": "Feature",
      "properties": {
        "name": "MINNESOTA & 26TH AVENUE NNE",
        "stop_id": "0411",
        "stop_code": null
      },
      "geometry": {
        "type": "Point",
        "coordinates": [
          -149.912798,
          61.197666
        ]
      }
    },
    {
      "type": "Feature",
      "properties": {
        "name": "9TH AVENUE & INGRA ESE",
        "stop_id": "0423",
        "stop_code": null
      },
      "geometry": {
        "type": "Point",
        "coordinates": [
          -149.865558,
          61.213602
        ]
      }
    },
    {
      "type": "Feature",
      "properties": {
        "name": "9TH AVENUE & KARLUK ESE",
        "stop_id": "0424",
        "stop_code": null
      },
      "geometry": {
        "type": "Point",
        "coordinates": [
          -149.861597,
          61.213578
        ]
      }
    },
    {
      "type": "Feature",
      "properties": {
        "name": "LATOUCHE & 10TH AVENUE SSW",
        "stop_id": "0425",
        "stop_code": null
      },
      "geometry": {
        "type": "Point",
        "coordinates": [
          -149.860969,
          61.212475
        ]
      }
    },
    {
      "type": "Feature",
      "properties": {
        "name": "MEDFRA & 12TH AVENUE SSW",
        "stop_id": "0426",
        "stop_code": null
      },
      "geometry": {
        "type": "Point",
        "coordinates": [
          -149.858863,
          61.210393
        ]
      }
    },
    {
      "type": "Feature",
      "properties": {
        "name": "MEDFRA & 14TH AVENUE NNW",
        "stop_id": "0427",
        "stop_code": null
      },
      "geometry": {
        "type": "Point",
        "coordinates": [
          -149.858905,
          61.208837
        ]
      }
    },
    {
      "type": "Feature",
      "properties": {
        "name": "CHUGACH VIEW",
        "stop_id": "0429",
        "stop_code": null
      },
      "geometry": {
        "type": "Point",
        "coordinates": [
          -149.857968,
          61.204812
        ]
      }
    },
    {
      "type": "Feature",
      "properties": {
        "name": "15TH AVENUE & MEDFRA ESE",
        "stop_id": "0434",
        "stop_code": null
      },
      "geometry": {
        "type": "Point",
        "coordinates": [
          -149.858185,
          61.207575
        ]
      }
    },
    {
      "type": "Feature",
      "properties": {
        "name": "DEBARR & CHARTER CIR WSW",
        "stop_id": "0437",
        "stop_code": null
      },
      "geometry": {
        "type": "Point",
        "coordinates": [
          -149.835445,
          61.207752
        ]
      }
    },
    {
      "type": "Feature",
      "properties": {
        "name": "ALASKA REGIONAL HOSPITAL S",
        "stop_id": "0438",
        "stop_code": null
      },
      "geometry": {
        "type": "Point",
        "coordinates": [
          -149.826404,
          61.210158
        ]
      }
    },
    {
      "type": "Feature",
      "properties": {
        "name": "PENLAND PKWY & PAUL LALONE ESE",
        "stop_id": "0441",
        "stop_code": null
      },
      "geometry": {
        "type": "Point",
        "coordinates": [
          -149.820792,
          61.215448
        ]
      }
    },
    {
      "type": "Feature",
      "properties": {
        "name": "PENLAND PKWY & KIDS CT ESE",
        "stop_id": "0442",
        "stop_code": null
      },
      "geometry": {
        "type": "Point",
        "coordinates": [
          -149.817183,
          61.215555
        ]
      }
    },
    {
      "type": "Feature",
      "properties": {
        "name": "PENLAND PKWY & NORTHWAY ESE",
        "stop_id": "0443",
        "stop_code": null
      },
      "geometry": {
        "type": "Point",
        "coordinates": [
          -149.812121,
          61.215806
        ]
      }
    },
    {
      "type": "Feature",
      "properties": {
        "name": "BRAGAW & 9TH AVENUE SSW",
        "stop_id": "0445",
        "stop_code": null
      },
      "geometry": {
        "type": "Point",
        "coordinates": [
          -149.80846,
          61.213638
        ]
      }
    },
    {
      "type": "Feature",
      "properties": {
        "name": "BRAGAW & SAN JEROMINO NNW",
        "stop_id": "0446",
        "stop_code": null
      },
      "geometry": {
        "type": "Point",
        "coordinates": [
          -149.808464,
          61.211849
        ]
      }
    },
    {
      "type": "Feature",
      "properties": {
        "name": "DEBARR & BRAGAW ESE",
        "stop_id": "0447",
        "stop_code": null
      },
      "geometry": {
        "type": "Point",
        "coordinates": [
          -149.80723,
          61.209575
        ]
      }
    },
    {
      "type": "Feature",
      "properties": {
        "name": "DEBARR & HOYT ESE",
        "stop_id": "0448",
        "stop_code": null
      },
      "geometry": {
        "type": "Point",
        "coordinates": [
          -149.799486,
          61.209582
        ]
      }
    },
    {
      "type": "Feature",
      "properties": {
        "name": "DEBARR & PINE WSW",
        "stop_id": "0449",
        "stop_code": null
      },
      "geometry": {
        "type": "Point",
        "coordinates": [
          -149.793936,
          61.209584
        ]
      }
    },
    {
      "type": "Feature",
      "properties": {
        "name": "DEBARR & L SELKREGG WSW",
        "stop_id": "0450",
        "stop_code": null
      },
      "geometry": {
        "type": "Point",
        "coordinates": [
          -149.786848,
          61.209583
        ]
      }
    },
    {
      "type": "Feature",
      "properties": {
        "name": "DEBARR & BONIFACE WSW",
        "stop_id": "0451",
        "stop_code": null
      },
      "geometry": {
        "type": "Point",
        "coordinates": [
          -149.779258,
          61.209649
        ]
      }
    },
    {
      "type": "Feature",
      "properties": {
        "name": "DEBARR & BONIFACE ESE",
        "stop_id": "0452",
        "stop_code": null
      },
      "geometry": {
        "type": "Point",
        "coordinates": [
          -149.775917,
          61.209635
        ]
      }
    },
    {
      "type": "Feature",
      "properties": {
        "name": "DEBARR & BUCKNER ESE",
        "stop_id": "0453",
        "stop_code": null
      },
      "geometry": {
        "type": "Point",
        "coordinates": [
          -149.770823,
          61.20965
        ]
      }
    },
    {
      "type": "Feature",
      "properties": {
        "name": "DEBARR & ATKINSON ESE",
        "stop_id": "0454",
        "stop_code": null
      },
      "geometry": {
        "type": "Point",
        "coordinates": [
          -149.766195,
          61.209648
        ]
      }
    },
    {
      "type": "Feature",
      "properties": {
        "name": "BEAVER & DEBARR SSW",
        "stop_id": "0455",
        "stop_code": null
      },
      "geometry": {
        "type": "Point",
        "coordinates": [
          -149.762602,
          61.208797
        ]
      }
    },
    {
      "type": "Feature",
      "properties": {
        "name": "BEAVER & 16TH AVENUE SSW",
        "stop_id": "0456",
        "stop_code": null
      },
      "geometry": {
        "type": "Point",
        "coordinates": [
          -149.762543,
          61.205682
        ]
      }
    },
    {
      "type": "Feature",
      "properties": {
        "name": "BEAVER & CHENEY LAKE W",
        "stop_id": "0457",
        "stop_code": null
      },
      "geometry": {
        "type": "Point",
        "coordinates": [
          -149.762553,
          61.202157
        ]
      }
    },
    {
      "type": "Feature",
      "properties": {
        "name": "BAXTER & COLGATE SSW",
        "stop_id": "0458",
        "stop_code": null
      },
      "geometry": {
        "type": "Point",
        "coordinates": [
          -149.763508,
          61.198892
        ]
      }
    },
    {
      "type": "Feature",
      "properties": {
        "name": "BAXTER & CAMROSE SSW",
        "stop_id": "0459",
        "stop_code": null
      },
      "geometry": {
        "type": "Point",
        "coordinates": [
          -149.763551,
          61.196326
        ]
      }
    },
    {
      "type": "Feature",
      "properties": {
        "name": "BAXTER & NORTHERN LIGHTS SSW",
        "stop_id": "0460",
        "stop_code": null
      },
      "geometry": {
        "type": "Point",
        "coordinates": [
          -149.763505,
          61.194653
        ]
      }
    },
    {
      "type": "Feature",
      "properties": {
        "name": "BAXTER & BAXTER ELEM WEST",
        "stop_id": "0461",
        "stop_code": null
      },
      "geometry": {
        "type": "Point",
        "coordinates": [
          -149.76357,
          61.193195
        ]
      }
    },
    {
      "type": "Feature",
      "properties": {
        "name": "BAXTER & 32ND AVENUE SSW",
        "stop_id": "0462",
        "stop_code": null
      },
      "geometry": {
        "type": "Point",
        "coordinates": [
          -149.763553,
          61.191351
        ]
      }
    },
    {
      "type": "Feature",
      "properties": {
        "name": "BAXTER & 35TH AVENUE SSW",
        "stop_id": "0463",
        "stop_code": null
      },
      "geometry": {
        "type": "Point",
        "coordinates": [
          -149.763535,
          61.18909
        ]
      }
    },
    {
      "type": "Feature",
      "properties": {
        "name": "BAXTER & 41ST AVENUE NNE",
        "stop_id": "0464",
        "stop_code": null
      },
      "geometry": {
        "type": "Point",
        "coordinates": [
          -149.763187,
          61.184465
        ]
      }
    },
    {
      "type": "Feature",
      "properties": {
        "name": "BAXTER & 41ST AVENUE NNW",
        "stop_id": "0465",
        "stop_code": null
      },
      "geometry": {
        "type": "Point",
        "coordinates": [
          -149.76358,
          61.184355
        ]
      }
    },
    {
      "type": "Feature",
      "properties": {
        "name": "TUDOR & BAXTER WNW",
        "stop_id": "0467",
        "stop_code": null
      },
      "geometry": {
        "type": "Point",
        "coordinates": [
          -149.764611,
          61.18092
        ]
      }
    },
    {
      "type": "Feature",
      "properties": {
        "name": "PROVIDENCE & ELMORE WSW",
        "stop_id": "0479",
        "stop_code": null
      },
      "geometry": {
        "type": "Point",
        "coordinates": [
          -149.810993,
          61.188673
        ]
      }
    },
    {
      "type": "Feature",
      "properties": {
        "name": "BAXTER & TUDOR NNE",
        "stop_id": "0489",
        "stop_code": null
      },
      "geometry": {
        "type": "Point",
        "coordinates": [
          -149.763267,
          61.181326
        ]
      }
    },
    {
      "type": "Feature",
      "properties": {
        "name": "BAXTER & 35TH AVENUE SSE",
        "stop_id": "0492",
        "stop_code": null
      },
      "geometry": {
        "type": "Point",
        "coordinates": [
          -149.763308,
          61.189156
        ]
      }
    },
    {
      "type": "Feature",
      "properties": {
        "name": "BAXTER & 32ND AVENUE SSE",
        "stop_id": "0493",
        "stop_code": null
      },
      "geometry": {
        "type": "Point",
        "coordinates": [
          -149.763256,
          61.191238
        ]
      }
    },
    {
      "type": "Feature",
      "properties": {
        "name": "BAXTER & BAXTER ELEM EAST",
        "stop_id": "0494",
        "stop_code": null
      },
      "geometry": {
        "type": "Point",
        "coordinates": [
          -149.763276,
          61.193904
        ]
      }
    },
    {
      "type": "Feature",
      "properties": {
        "name": "BAXTER & NORTHERN LIGHTS NNE",
        "stop_id": "0495",
        "stop_code": null
      },
      "geometry": {
        "type": "Point",
        "coordinates": [
          -149.763246,
          61.195865
        ]
      }
    },
    {
      "type": "Feature",
      "properties": {
        "name": "BAXTER & PROSPERITY NNE",
        "stop_id": "0496",
        "stop_code": null
      },
      "geometry": {
        "type": "Point",
        "coordinates": [
          -149.763327,
          61.199555
        ]
      }
    },
    {
      "type": "Feature",
      "properties": {
        "name": "BEAVER & 1925 BEAVER PL EAST",
        "stop_id": "0497",
        "stop_code": null
      },
      "geometry": {
        "type": "Point",
        "coordinates": [
          -149.762327,
          61.203002
        ]
      }
    },
    {
      "type": "Feature",
      "properties": {
        "name": "BEAVER & 16TH AVENUE SSE",
        "stop_id": "0498",
        "stop_code": null
      },
      "geometry": {
        "type": "Point",
        "coordinates": [
          -149.762357,
          61.205915
        ]
      }
    },
    {
      "type": "Feature",
      "properties": {
        "name": "BEAVER & DEBARR SSE",
        "stop_id": "0499",
        "stop_code": null
      },
      "geometry": {
        "type": "Point",
        "coordinates": [
          -149.762333,
          61.208967
        ]
      }
    },
    {
      "type": "Feature",
      "properties": {
        "name": "DEBARR & NUNAKA ENE",
        "stop_id": "0501",
        "stop_code": null
      },
      "geometry": {
        "type": "Point",
        "coordinates": [
          -149.768728,
          61.209848
        ]
      }
    },
    {
      "type": "Feature",
      "properties": {
        "name": "DEBARR & BONIFACE ENE",
        "stop_id": "0502",
        "stop_code": null
      },
      "geometry": {
        "type": "Point",
        "coordinates": [
          -149.774827,
          61.209805
        ]
      }
    },
    {
      "type": "Feature",
      "properties": {
        "name": "DEBARR & BONIFACE WNW",
        "stop_id": "0503",
        "stop_code": null
      },
      "geometry": {
        "type": "Point",
        "coordinates": [
          -149.77975,
          61.209853
        ]
      }
    },
    {
      "type": "Feature",
      "properties": {
        "name": "DEBARR & L SELKREGG WNW",
        "stop_id": "0504",
        "stop_code": null
      },
      "geometry": {
        "type": "Point",
        "coordinates": [
          -149.786999,
          61.209823
        ]
      }
    },
    {
      "type": "Feature",
      "properties": {
        "name": "DEBARR & PINE WNW",
        "stop_id": "0505",
        "stop_code": null
      },
      "geometry": {
        "type": "Point",
        "coordinates": [
          -149.79462,
          61.209827
        ]
      }
    },
    {
      "type": "Feature",
      "properties": {
        "name": "DEBARR & HOYT WNW",
        "stop_id": "0506",
        "stop_code": null
      },
      "geometry": {
        "type": "Point",
        "coordinates": [
          -149.800893,
          61.209819
        ]
      }
    },
    {
      "type": "Feature",
      "properties": {
        "name": "DEBARR & BRAGAW ENE",
        "stop_id": "0507",
        "stop_code": null
      },
      "geometry": {
        "type": "Point",
        "coordinates": [
          -149.805476,
          61.209818
        ]
      }
    },
    {
      "type": "Feature",
      "properties": {
        "name": "BRAGAW & DEBARR NNE",
        "stop_id": "0508",
        "stop_code": null
      },
      "geometry": {
        "type": "Point",
        "coordinates": [
          -149.80811,
          61.210244
        ]
      }
    },
    {
      "type": "Feature",
      "properties": {
        "name": "BRAGAW & SAN CLEMNTSN NNE",
        "stop_id": "0509",
        "stop_code": null
      },
      "geometry": {
        "type": "Point",
        "coordinates": [
          -149.808149,
          61.213234
        ]
      }
    },
    {
      "type": "Feature",
      "properties": {
        "name": "PENLAND PKWY & BRAGAW WNW",
        "stop_id": "0511",
        "stop_code": null
      },
      "geometry": {
        "type": "Point",
        "coordinates": [
          -149.810846,
          61.216044
        ]
      }
    },
    {
      "type": "Feature",
      "properties": {
        "name": "PENLAND PKWY & KIDS CT WNW",
        "stop_id": "0513",
        "stop_code": null
      },
      "geometry": {
        "type": "Point",
        "coordinates": [
          -149.818406,
          61.215584
        ]
      }
    },
    {
      "type": "Feature",
      "properties": {
        "name": "PENLAND PKWY & PAUL LALONE N",
        "stop_id": "0514",
        "stop_code": null
      },
      "geometry": {
        "type": "Point",
        "coordinates": [
          -149.821331,
          61.215543
        ]
      }
    },
    {
      "type": "Feature",
      "properties": {
        "name": "AIRPORT HGTS & PENLAND SSW",
        "stop_id": "0515",
        "stop_code": null
      },
      "geometry": {
        "type": "Point",
        "coordinates": [
          -149.824578,
          61.215012
        ]
      }
    },
    {
      "type": "Feature",
      "properties": {
        "name": "ALASKA REGIONAL HOSPITAL N",
        "stop_id": "0517",
        "stop_code": null
      },
      "geometry": {
        "type": "Point",
        "coordinates": [
          -149.826221,
          61.210218
        ]
      }
    },
    {
      "type": "Feature",
      "properties": {
        "name": "DEBARR & ALASKA REGIONAL DR WNW",
        "stop_id": "0518",
        "stop_code": null
      },
      "geometry": {
        "type": "Point",
        "coordinates": [
          -149.831827,
          61.209447
        ]
      }
    },
    {
      "type": "Feature",
      "properties": {
        "name": "15TH AVENUE & LAKE OTIS WNW",
        "stop_id": "0519",
        "stop_code": null
      },
      "geometry": {
        "type": "Point",
        "coordinates": [
          -149.83964,
          61.207825
        ]
      }
    },
    {
      "type": "Feature",
      "properties": {
        "name": "MEDFRA & 16TH AVENUE SSW",
        "stop_id": "0522",
        "stop_code": null
      },
      "geometry": {
        "type": "Point",
        "coordinates": [
          -149.858705,
          61.205965
        ]
      }
    },
    {
      "type": "Feature",
      "properties": {
        "name": "ORCA & 19TH AVENUE NNW",
        "stop_id": "0524",
        "stop_code": null
      },
      "geometry": {
        "type": "Point",
        "coordinates": [
          -149.855264,
          61.204077
        ]
      }
    },
    {
      "type": "Feature",
      "properties": {
        "name": "CHUGACH MANOR",
        "stop_id": "0525",
        "stop_code": null
      },
      "geometry": {
        "type": "Point",
        "coordinates": [
          -149.85886,
          61.203668
        ]
      }
    },
    {
      "type": "Feature",
      "properties": {
        "name": "KARLUK & 19TH AVENUE NNE",
        "stop_id": "0526",
        "stop_code": null
      },
      "geometry": {
        "type": "Point",
        "coordinates": [
          -149.861335,
          61.204305
        ]
      }
    },
    {
      "type": "Feature",
      "properties": {
        "name": "MEDFRA & 16TH AVENUE NNE",
        "stop_id": "0527",
        "stop_code": null
      },
      "geometry": {
        "type": "Point",
        "coordinates": [
          -149.858703,
          61.206623
        ]
      }
    },
    {
      "type": "Feature",
      "properties": {
        "name": "MEDFRA & 14TH AVENUE SSE",
        "stop_id": "0528",
        "stop_code": null
      },
      "geometry": {
        "type": "Point",
        "coordinates": [
          -149.858675,
          61.208605
        ]
      }
    },
    {
      "type": "Feature",
      "properties": {
        "name": "MEDFRA & 12TH AVENUE NNE",
        "stop_id": "0529",
        "stop_code": null
      },
      "geometry": {
        "type": "Point",
        "coordinates": [
          -149.858688,
          61.210945
        ]
      }
    },
    {
      "type": "Feature",
      "properties": {
        "name": "LATOUCHE & 10TH AVENUE NNE",
        "stop_id": "0530",
        "stop_code": null
      },
      "geometry": {
        "type": "Point",
        "coordinates": [
          -149.860645,
          61.212847
        ]
      }
    },
    {
      "type": "Feature",
      "properties": {
        "name": "9TH AVENUE & KARLUK ENE",
        "stop_id": "0531",
        "stop_code": null
      },
      "geometry": {
        "type": "Point",
        "coordinates": [
          -149.861645,
          61.21369
        ]
      }
    },
    {
      "type": "Feature",
      "properties": {
        "name": "9TH AVENUE & INGRA WNW",
        "stop_id": "0532",
        "stop_code": null
      },
      "geometry": {
        "type": "Point",
        "coordinates": [
          -149.867725,
          61.213715
        ]
      }
    },
    {
      "type": "Feature",
      "properties": {
        "name": "CORDOVA & 8TH AVENUE SSE",
        "stop_id": "0535",
        "stop_code": null
      },
      "geometry": {
        "type": "Point",
        "coordinates": [
          -149.87905,
          61.21454
        ]
      }
    },
    {
      "type": "Feature",
      "properties": {
        "name": "CORDOVA & 10TH AVENUE SSW",
        "stop_id": "0549",
        "stop_code": null
      },
      "geometry": {
        "type": "Point",
        "coordinates": [
          -149.879318,
          61.212347
        ]
      }
    },
    {
      "type": "Feature",
      "properties": {
        "name": "CORDOVA & 11TH AVENUE SSW",
        "stop_id": "0550",
        "stop_code": null
      },
      "geometry": {
        "type": "Point",
        "coordinates": [
          -149.87933,
          61.211372
        ]
      }
    },
    {
      "type": "Feature",
      "properties": {
        "name": "13TH AVENUE & CORDOVA ESE",
        "stop_id": "0551",
        "stop_code": null
      },
      "geometry": {
        "type": "Point",
        "coordinates": [
          -149.878547,
          61.209611
        ]
      }
    },
    {
      "type": "Feature",
      "properties": {
        "name": "13TH AVENUE & EAGLE ESE",
        "stop_id": "0552",
        "stop_code": null
      },
      "geometry": {
        "type": "Point",
        "coordinates": [
          -149.87439,
          61.20961
        ]
      }
    },
    {
      "type": "Feature",
      "properties": {
        "name": "13TH AVENUE & GAMBELL ESE",
        "stop_id": "0553",
        "stop_code": null
      },
      "geometry": {
        "type": "Point",
        "coordinates": [
          -149.870094,
          61.209604
        ]
      }
    },
    {
      "type": "Feature",
      "properties": {
        "name": "15TH AVENUE & GAMBELL ESE",
        "stop_id": "0554",
        "stop_code": null
      },
      "geometry": {
        "type": "Point",
        "coordinates": [
          -149.869659,
          61.207585
        ]
      }
    },
    {
      "type": "Feature",
      "properties": {
        "name": "15TH AVENUE & INGRA ESE",
        "stop_id": "0555",
        "stop_code": null
      },
      "geometry": {
        "type": "Point",
        "coordinates": [
          -149.865505,
          61.207623
        ]
      }
    },
    {
      "type": "Feature",
      "properties": {
        "name": "15TH AVENUE & KARLUK ESE",
        "stop_id": "0556",
        "stop_code": null
      },
      "geometry": {
        "type": "Point",
        "coordinates": [
          -149.862068,
          61.207618
        ]
      }
    },
    {
      "type": "Feature",
      "properties": {
        "name": "15TH AVENUE & ORCA ESE",
        "stop_id": "0558",
        "stop_code": null
      },
      "geometry": {
        "type": "Point",
        "coordinates": [
          -149.854073,
          61.207589
        ]
      }
    },
    {
      "type": "Feature",
      "properties": {
        "name": "15TH AVENUE & SITKA ESE",
        "stop_id": "0559",
        "stop_code": null
      },
      "geometry": {
        "type": "Point",
        "coordinates": [
          -149.844498,
          61.207632
        ]
      }
    },
    {
      "type": "Feature",
      "properties": {
        "name": "SUNRISE & 18TH AVENUE SSW",
        "stop_id": "0564",
        "stop_code": null
      },
      "geometry": {
        "type": "Point",
        "coordinates": [
          -149.826421,
          61.203897
        ]
      }
    },
    {
      "type": "Feature",
      "properties": {
        "name": "SUNRISE & 20TH AVENUE NNW",
        "stop_id": "0565",
        "stop_code": null
      },
      "geometry": {
        "type": "Point",
        "coordinates": [
          -149.82703,
          61.20255
        ]
      }
    },
    {
      "type": "Feature",
      "properties": {
        "name": "20TH AVENUE & ALDER WNW",
        "stop_id": "0566",
        "stop_code": null
      },
      "geometry": {
        "type": "Point",
        "coordinates": [
          -149.829726,
          61.202562
        ]
      }
    },
    {
      "type": "Feature",
      "properties": {
        "name": "20TH AVENUE & LOGAN WNW",
        "stop_id": "0567",
        "stop_code": null
      },
      "geometry": {
        "type": "Point",
        "coordinates": [
          -149.833829,
          61.202561
        ]
      }
    },
    {
      "type": "Feature",
      "properties": {
        "name": "20TH AVENUE & TALKEETNA WNW",
        "stop_id": "0568",
        "stop_code": null
      },
      "geometry": {
        "type": "Point",
        "coordinates": [
          -149.837104,
          61.202478
        ]
      }
    },
    {
      "type": "Feature",
      "properties": {
        "name": "LAKE OTIS & MAPLE SSW",
        "stop_id": "0569",
        "stop_code": null
      },
      "geometry": {
        "type": "Point",
        "coordinates": [
          -149.838437,
          61.19794
        ]
      }
    },
    {
      "type": "Feature",
      "properties": {
        "name": "ELMORE & SHARON GAGNON SSW",
        "stop_id": "0577",
        "stop_code": null
      },
      "geometry": {
        "type": "Point",
        "coordinates": [
          -149.80895,
          61.184921
        ]
      }
    },
    {
      "type": "Feature",
      "properties": {
        "name": "TUDOR & ELMORE ESE",
        "stop_id": "0580",
        "stop_code": null
      },
      "geometry": {
        "type": "Point",
        "coordinates": [
          -149.805068,
          61.180655
        ]
      }
    },
    {
      "type": "Feature",
      "properties": {
        "name": "CHECKMATE & 42ND AVENUE NNE",
        "stop_id": "0584",
        "stop_code": null
      },
      "geometry": {
        "type": "Point",
        "coordinates": [
          -149.785475,
          61.182845
        ]
      }
    },
    {
      "type": "Feature",
      "properties": {
        "name": "CHECKMATE & SYDNEY KAY NNE",
        "stop_id": "0586",
        "stop_code": null
      },
      "geometry": {
        "type": "Point",
        "coordinates": [
          -149.784705,
          61.187095
        ]
      }
    },
    {
      "type": "Feature",
      "properties": {
        "name": "EMMANUEL & BONIFACE WSW",
        "stop_id": "0589",
        "stop_code": null
      },
      "geometry": {
        "type": "Point",
        "coordinates": [
          -149.779711,
          61.189674
        ]
      }
    },
    {
      "type": "Feature",
      "properties": {
        "name": "BONIFACE & 34TH AVENUE NNE",
        "stop_id": "0590",
        "stop_code": null
      },
      "geometry": {
        "type": "Point",
        "coordinates": [
          -149.778123,
          61.19048
        ]
      }
    },
    {
      "type": "Feature",
      "properties": {
        "name": "BONIFACE & 30TH AVENUE SSE",
        "stop_id": "0591",
        "stop_code": null
      },
      "geometry": {
        "type": "Point",
        "coordinates": [
          -149.7781,
          61.193094
        ]
      }
    },
    {
      "type": "Feature",
      "properties": {
        "name": "NORTHERN LIGHTS & CMBL ARSTR ESE",
        "stop_id": "0594",
        "stop_code": null
      },
      "geometry": {
        "type": "Point",
        "coordinates": [
          -149.76872,
          61.195167
        ]
      }
    },